[
  {
    "county": "Cork",
    "stationNumber": 5704,
    "name": "AHERLAMORE",
    "heightInMeters": 122,
    "easting": 150000,
    "northing": 66600,
    "latitude": 51.843,
    "longitude": -8.722,
    "openYear": 1985,
    "closeYear": 0,
    "main": false
  },
  {
    "county": "Cork",
    "stationNumber": 1203,
    "name": "ALLIHIES G.S.",
    "heightInMeters": 58,
    "easting": 58700,
    "northing": 45400,
    "latitude": 51.639,
    "longitude": -10.038,
    "openYear": 1950,
    "closeYear": 1969,
    "main": false
  },
  {
    "county": "Cork",
    "stationNumber": 306,
    "name": "ARAGLEN G.S.",
    "heightInMeters": 94,
    "easting": 192700,
    "northing": 106100,
    "latitude": 52.204,
    "longitude": -8.104,
    "openYear": 1944,
    "closeYear": 1958,
    "main": false
  },
  {
    "county": "Cork",
    "stationNumber": 5006,
    "name": "ARAGLEN TROUT FARM",
    "heightInMeters": 91,
    "easting": 190800,
    "northing": 105500,
    "latitude": 52.201,
    "longitude": -8.134,
    "openYear": 1981,
    "closeYear": 1982,
    "main": false
  },
  {
    "county": "Cork",
    "stationNumber": 6806,
    "name": "ARAGLEN TROUT FARM II",
    "heightInMeters": 73,
    "easting": 190500,
    "northing": 105300,
    "latitude": 52.193,
    "longitude": -8.136,
    "openYear": 1988,
    "closeYear": 1991,
    "main": false
  },
  {
    "county": "Cork",
    "stationNumber": 1104,
    "name": "BALLINACURRA",
    "heightInMeters": 7,
    "easting": 188500,
    "northing": 72000,
    "latitude": 51.9,
    "longitude": -8.167,
    "openYear": 1909,
    "closeYear": 1984,
    "main": false
  },
  {
    "county": "Cork",
    "stationNumber": 5304,
    "name": "BALLINACURRA NO.2",
    "heightInMeters": 17,
    "easting": 188900,
    "northing": 71500,
    "latitude": 51.891,
    "longitude": -8.157,
    "openYear": 1984,
    "closeYear": 2002,
    "main": false
  },
  {
    "county": "Cork",
    "stationNumber": 2504,
    "name": "BALLINAGREE (HORSEMOUNT)",
    "heightInMeters": 162,
    "easting": 135400,
    "northing": 79800,
    "latitude": 51.967,
    "longitude": -8.937,
    "openYear": 1948,
    "closeYear": 1977,
    "main": false
  },
  {
    "county": "Cork",
    "stationNumber": 2904,
    "name": "BALLINAGREE (MUSHERA)",
    "heightInMeters": 351,
    "easting": 135700,
    "northing": 85500,
    "latitude": 52.017,
    "longitude": -8.935,
    "openYear": 1948,
    "closeYear": 2005,
    "main": false
  },
  {
    "county": "Cork",
    "stationNumber": 2304,
    "name": "BALLINCURRIG G.S.",
    "heightInMeters": 92,
    "easting": 184500,
    "northing": 81700,
    "latitude": 51.986,
    "longitude": -8.222,
    "openYear": 1944,
    "closeYear": 1969,
    "main": false
  },
  {
    "county": "Cork",
    "stationNumber": 6204,
    "name": "BALLINCURRIG_(Peafield)",
    "heightInMeters": 158,
    "easting": 186285,
    "northing": 84265,
    "latitude": 52.007,
    "longitude": -8.2,
    "openYear": 1995,
    "closeYear": 0,
    "main": false
  },
  {
    "county": "Cork",
    "stationNumber": 4002,
    "name": "BALLINEEN",
    "heightInMeters": 46,
    "easting": 134300,
    "northing": 54000,
    "latitude": 51.734,
    "longitude": -8.951,
    "openYear": 1985,
    "closeYear": 2012,
    "main": false
  },
  {
    "county": "Cork",
    "stationNumber": 2602,
    "name": "BALLINEEN G.S.",
    "heightInMeters": 46,
    "easting": 134500,
    "northing": 54000,
    "latitude": 51.734,
    "longitude": -8.942,
    "openYear": 1950,
    "closeYear": 1987,
    "main": false
  },
  {
    "county": "Cork",
    "stationNumber": 4602,
    "name": "BALLINEEN_(Carbery)",
    "heightInMeters": 42,
    "easting": 132510,
    "northing": 53585,
    "latitude": 51.725,
    "longitude": -8.973,
    "openYear": 1995,
    "closeYear": 0,
    "main": false
  },
  {
    "county": "Cork",
    "stationNumber": 5002,
    "name": "BALLINEEN_Caherkirky",
    "heightInMeters": 165,
    "easting": 131800,
    "northing": 49115,
    "latitude": 51.688,
    "longitude": -8.985,
    "openYear": 1999,
    "closeYear": 0,
    "main": false
  },
  {
    "county": "Cork",
    "stationNumber": 3004,
    "name": "BALLINGEARY_(Voc.Sch.)",
    "heightInMeters": 91,
    "easting": 115000,
    "northing": 67100,
    "latitude": 51.85,
    "longitude": -9.233,
    "openYear": 1948,
    "closeYear": 0,
    "main": false
  },
  {
    "county": "Cork",
    "stationNumber": 104,
    "name": "BALLINHASSIG RECTORY",
    "heightInMeters": 73,
    "easting": 163200,
    "northing": 62800,
    "latitude": 51.817,
    "longitude": -8.533,
    "openYear": 1941,
    "closeYear": 1943,
    "main": false
  },
  {
    "county": "Cork",
    "stationNumber": 2102,
    "name": "BALLINSPITTLE G.S.",
    "heightInMeters": 15,
    "easting": 158700,
    "northing": 46200,
    "latitude": 51.667,
    "longitude": -8.592,
    "openYear": 1949,
    "closeYear": 1995,
    "main": false
  },
  {
    "county": "Cork",
    "stationNumber": 5702,
    "name": "BALLINSPITTLE_(Kilkerran)",
    "heightInMeters": 100,
    "easting": 158895,
    "northing": 47685,
    "latitude": 51.675,
    "longitude": -8.59,
    "openYear": 2012,
    "closeYear": 0,
    "main": false
  },
  {
    "county": "Cork",
    "stationNumber": 4402,
    "name": "BALLINTRIDEEN",
    "heightInMeters": 91,
    "easting": 169200,
    "northing": 57100,
    "latitude": 51.76,
    "longitude": -8.441,
    "openYear": 1994,
    "closeYear": 2005,
    "main": false
  },
  {
    "county": "Cork",
    "stationNumber": 1702,
    "name": "BALLYDEHOB G.S.",
    "heightInMeters": 20,
    "easting": 98700,
    "northing": 35100,
    "latitude": 51.556,
    "longitude": -9.457,
    "openYear": 1948,
    "closeYear": 1985,
    "main": false
  },
  {
    "county": "Cork",
    "stationNumber": 3906,
    "name": "BALLYDESMOND (EAST) G.S.",
    "heightInMeters": 207,
    "easting": 116000,
    "northing": 103600,
    "latitude": 52.173,
    "longitude": -9.223,
    "openYear": 1964,
    "closeYear": 1967,
    "main": false
  },
  {
    "county": "Cork",
    "stationNumber": 1006,
    "name": "BALLYDESMOND G.S.",
    "heightInMeters": 198,
    "easting": 115200,
    "northing": 103900,
    "latitude": 52.175,
    "longitude": -9.237,
    "openYear": 1941,
    "closeYear": 1964,
    "main": false
  },
  {
    "county": "Cork",
    "stationNumber": 5106,
    "name": "BALLYDINEEN DONERAILE",
    "heightInMeters": 143,
    "easting": 159900,
    "northing": 105200,
    "latitude": 52.192,
    "longitude": -8.585,
    "openYear": 1982,
    "closeYear": 1984,
    "main": false
  },
  {
    "county": "Cork",
    "stationNumber": 7906,
    "name": "BALLYHOOLY (CASTLEBLAGH)",
    "heightInMeters": 140,
    "easting": 171900,
    "northing": 97600,
    "latitude": 52.124,
    "longitude": -8.406,
    "openYear": 2001,
    "closeYear": 0,
    "main": false
  },
  {
    "county": "Cork",
    "stationNumber": 4404,
    "name": "BALLYMACODA_(Mountcotton)",
    "heightInMeters": 64,
    "easting": 205500,
    "northing": 69900,
    "latitude": 51.876,
    "longitude": -7.919,
    "openYear": 1976,
    "closeYear": 0,
    "main": false
  },
  {
    "county": "Cork",
    "stationNumber": 2006,
    "name": "BALLYNOE G.S.",
    "heightInMeters": 97,
    "easting": 193100,
    "northing": 89700,
    "latitude": 52.056,
    "longitude": -8.1,
    "openYear": 1944,
    "closeYear": 1996,
    "main": false
  },
  {
    "county": "Cork",
    "stationNumber": 1704,
    "name": "BALLYVOURNEY G.S.",
    "heightInMeters": 129,
    "easting": 119700,
    "northing": 77700,
    "latitude": 51.941,
    "longitude": -9.167,
    "openYear": 1942,
    "closeYear": 1985,
    "main": false
  },
  {
    "county": "Cork",
    "stationNumber": 2604,
    "name": "BALLYVOURNEY_(Clountycarty)",
    "heightInMeters": 152,
    "easting": 121000,
    "northing": 71500,
    "latitude": 51.887,
    "longitude": -9.142,
    "openYear": 1948,
    "closeYear": 2017,
    "main": false
  },
  {
    "county": "Cork",
    "stationNumber": 4102,
    "name": "BANDON (COOLFADDA)",
    "heightInMeters": 94,
    "easting": 148100,
    "northing": 55400,
    "latitude": 51.742,
    "longitude": -8.751,
    "openYear": 1985,
    "closeYear": 2000,
    "main": false
  },
  {
    "county": "Cork",
    "stationNumber": 502,
    "name": "BANDON (FLORAVILLE)",
    "heightInMeters": 64,
    "easting": 148200,
    "northing": 55600,
    "latitude": 51.75,
    "longitude": -8.75,
    "openYear": 1940,
    "closeYear": 1948,
    "main": false
  },
  {
    "county": "Cork",
    "stationNumber": 5102,
    "name": "BANDON (HILLVIEW)",
    "heightInMeters": 67,
    "easting": 149300,
    "northing": 54700,
    "latitude": 51.739,
    "longitude": -8.734,
    "openYear": 1999,
    "closeYear": 2010,
    "main": false
  },
  {
    "county": "Cork",
    "stationNumber": 1502,
    "name": "BANDON (VOC.SCH.)",
    "heightInMeters": 34,
    "easting": 149000,
    "northing": 55500,
    "latitude": 51.75,
    "longitude": -8.737,
    "openYear": 1948,
    "closeYear": 1972,
    "main": false
  },
  {
    "county": "Cork",
    "stationNumber": 5602,
    "name": "BANDON_(The-Gully)",
    "heightInMeters": 60,
    "easting": 147895,
    "northing": 54580,
    "latitude": 51.738,
    "longitude": -8.753,
    "openYear": 2012,
    "closeYear": 0,
    "main": false
  },
  {
    "county": "Cork",
    "stationNumber": 5502,
    "name": "BANDON_WATERWORKS",
    "heightInMeters": 105,
    "easting": 143995,
    "northing": 55510,
    "latitude": 51.743,
    "longitude": -8.807,
    "openYear": 2010,
    "closeYear": 0,
    "main": false
  },
  {
    "county": "Cork",
    "stationNumber": 7506,
    "name": "BANTEER (GLENSOUTH)",
    "heightInMeters": 161,
    "easting": 142500,
    "northing": 92600,
    "latitude": 52.076,
    "longitude": -8.837,
    "openYear": 1997,
    "closeYear": 2015,
    "main": false
  },
  {
    "county": "Cork",
    "stationNumber": 2206,
    "name": "BANTEER G.S.",
    "heightInMeters": 75,
    "easting": 139100,
    "northing": 98000,
    "latitude": 52.125,
    "longitude": -8.887,
    "openYear": 1944,
    "closeYear": 1970,
    "main": false
  },
  {
    "county": "Cork",
    "stationNumber": 6306,
    "name": "BANTEER LYRE",
    "heightInMeters": 267,
    "easting": 141500,
    "northing": 92500,
    "latitude": 52.075,
    "longitude": -8.852,
    "openYear": 1985,
    "closeYear": 0,
    "main": false
  },
  {
    "county": "Cork",
    "stationNumber": 1101,
    "name": "BANTRY (ARDNAGASHEL)",
    "heightInMeters": 16,
    "easting": 98100,
    "northing": 52900,
    "latitude": 51.718,
    "longitude": -9.472,
    "openYear": 1953,
    "closeYear": 1989,
    "main": false
  },
  {
    "county": "Cork",
    "stationNumber": 2301,
    "name": "BANTRY (DONEMARK)",
    "heightInMeters": 24,
    "easting": 100400,
    "northing": 50700,
    "latitude": 51.7,
    "longitude": -9.437,
    "openYear": 2002,
    "closeYear": 2007,
    "main": false
  },
  {
    "county": "Cork",
    "stationNumber": 1801,
    "name": "BANTRY (DROMLEIGH)",
    "heightInMeters": 67,
    "easting": 99800,
    "northing": 47800,
    "latitude": 51.671,
    "longitude": -9.443,
    "openYear": 1992,
    "closeYear": 1996,
    "main": false
  },
  {
    "county": "Cork",
    "stationNumber": 401,
    "name": "BANTRY (DRUMCLUGH)",
    "heightInMeters": 146,
    "easting": 106300,
    "northing": 51800,
    "latitude": 51.707,
    "longitude": -9.353,
    "openYear": 1948,
    "closeYear": 1952,
    "main": false
  },
  {
    "county": "Cork",
    "stationNumber": 501,
    "name": "BANTRY (GLANCREAGH)",
    "heightInMeters": 174,
    "easting": 107900,
    "northing": 52700,
    "latitude": 51.718,
    "longitude": -9.333,
    "openYear": 1954,
    "closeYear": 1957,
    "main": false
  },
  {
    "county": "Cork",
    "stationNumber": 2101,
    "name": "BANTRY (ROOSKA)",
    "heightInMeters": 30,
    "easting": 92400,
    "northing": 45200,
    "latitude": 51.643,
    "longitude": -9.553,
    "openYear": 1994,
    "closeYear": 1996,
    "main": false
  },
  {
    "county": "Cork",
    "stationNumber": 1201,
    "name": "BANTRY (ST.JOSEPH'S HOSP.)",
    "heightInMeters": 46,
    "easting": 100100,
    "northing": 49000,
    "latitude": 51.684,
    "longitude": -9.44,
    "openYear": 1974,
    "closeYear": 1990,
    "main": false
  },
  {
    "county": "Cork",
    "stationNumber": 301,
    "name": "BANTRY (VOC.SCH.)",
    "heightInMeters": 5,
    "easting": 99600,
    "northing": 48600,
    "latitude": 51.675,
    "longitude": -9.451,
    "openYear": 1941,
    "closeYear": 1973,
    "main": false
  },
  {
    "county": "Cork",
    "stationNumber": 2401,
    "name": "BANTRY-Letterlickey",
    "heightInMeters": 91,
    "easting": 100100,
    "northing": 43500,
    "latitude": 51.635,
    "longitude": -9.439,
    "openYear": 2009,
    "closeYear": 2012,
    "main": false
  },
  {
    "county": "Cork",
    "stationNumber": 2501,
    "name": "BANTRY-Maulikeeve",
    "heightInMeters": 156,
    "easting": 105795,
    "northing": 54450,
    "latitude": 51.734,
    "longitude": -9.359,
    "openYear": 2015,
    "closeYear": 0,
    "main": false
  },
  {
    "county": "Cork",
    "stationNumber": 2201,
    "name": "BANTRY_(Shandrum)",
    "heightInMeters": 80,
    "easting": 102070,
    "northing": 52175,
    "latitude": 51.708,
    "longitude": -9.417,
    "openYear": 1999,
    "closeYear": 0,
    "main": false
  },
  {
    "county": "Cork",
    "stationNumber": 7006,
    "name": "BARTLEMY",
    "heightInMeters": 98,
    "easting": 181900,
    "northing": 87600,
    "latitude": 52.037,
    "longitude": -8.259,
    "openYear": 1992,
    "closeYear": 0,
    "main": false
  },
  {
    "county": "Cork",
    "stationNumber": 5402,
    "name": "BELGOOLY",
    "heightInMeters": 38,
    "easting": 165785,
    "northing": 53425,
    "latitude": 51.726,
    "longitude": -8.491,
    "openYear": 2004,
    "closeYear": 0,
    "main": false
  },
  {
    "county": "Cork",
    "stationNumber": 5906,
    "name": "BOHERBOE",
    "heightInMeters": 183,
    "easting": 125000,
    "northing": 102700,
    "latitude": 52.169,
    "longitude": -9.091,
    "openYear": 1985,
    "closeYear": 1990,
    "main": false
  },
  {
    "county": "Cork",
    "stationNumber": 1206,
    "name": "BOHERBUE G.S.",
    "heightInMeters": 201,
    "easting": 126600,
    "northing": 101300,
    "latitude": 52.155,
    "longitude": -9.07,
    "openYear": 1944,
    "closeYear": 1972,
    "main": false
  },
  {
    "county": "Cork",
    "stationNumber": 1606,
    "name": "BUTTEVANT G.S.",
    "heightInMeters": 96,
    "easting": 154100,
    "northing": 108700,
    "latitude": 52.223,
    "longitude": -8.67,
    "openYear": 1944,
    "closeYear": 2002,
    "main": false
  },
  {
    "county": "Cork",
    "stationNumber": 101,
    "name": "Bantry(The_old_rectory)",
    "heightInMeters": 61,
    "easting": 98600,
    "northing": 48900,
    "latitude": 51.683,
    "longitude": -9.217,
    "openYear": 1936,
    "closeYear": 1940,
    "main": false
  },
  {
    "county": "Cork",
    "stationNumber": 3002,
    "name": "CAPE CLEAR",
    "heightInMeters": 9,
    "easting": 95300,
    "northing": 22100,
    "latitude": 51.438,
    "longitude": -9.503,
    "openYear": 1963,
    "closeYear": 1963,
    "main": false
  },
  {
    "county": "Cork",
    "stationNumber": 3604,
    "name": "CARRIGADROHID_(GenStn)",
    "heightInMeters": 65,
    "easting": 140640,
    "northing": 71950,
    "latitude": 51.892,
    "longitude": -8.858,
    "openYear": 1953,
    "closeYear": 0,
    "main": false
  },
  {
    "county": "Cork",
    "stationNumber": 6004,
    "name": "CARRIGALINE (KILNAGLEARY)",
    "heightInMeters": 24,
    "easting": 174000,
    "northing": 61600,
    "latitude": 51.804,
    "longitude": -8.372,
    "openYear": 1992,
    "closeYear": 0,
    "main": false
  },
  {
    "county": "Cork",
    "stationNumber": 3204,
    "name": "CARRIGALINE G.S.",
    "heightInMeters": 6,
    "easting": 173000,
    "northing": 62600,
    "latitude": 51.809,
    "longitude": -8.388,
    "openYear": 1950,
    "closeYear": 1994,
    "main": false
  },
  {
    "county": "Cork",
    "stationNumber": 4104,
    "name": "CARRIGNAVAR COLL.",
    "heightInMeters": 107,
    "easting": 167700,
    "northing": 81300,
    "latitude": 51.983,
    "longitude": -8.469,
    "openYear": 1966,
    "closeYear": 1973,
    "main": false
  },
  {
    "county": "Cork",
    "stationNumber": 2204,
    "name": "CARRIGNAVAR G.S.",
    "heightInMeters": 116,
    "easting": 167200,
    "northing": 82000,
    "latitude": 51.987,
    "longitude": -8.473,
    "openYear": 1944,
    "closeYear": 1966,
    "main": false
  },
  {
    "county": "Cork",
    "stationNumber": 4504,
    "name": "CARRIGTUOHILL (TIBBOTSTOWN)",
    "heightInMeters": 119,
    "easting": 181100,
    "northing": 76300,
    "latitude": 51.937,
    "longitude": -8.272,
    "openYear": 1976,
    "closeYear": 1979,
    "main": false
  },
  {
    "county": "Cork",
    "stationNumber": 204,
    "name": "CARRIGTUOHILL RECTORY",
    "heightInMeters": 33,
    "easting": 188500,
    "northing": 73800,
    "latitude": 51.917,
    "longitude": -8.167,
    "openYear": 1938,
    "closeYear": 1943,
    "main": false
  },
  {
    "county": "Cork",
    "stationNumber": 8606,
    "name": "CASTLELYONS (BALLYMACSIMON)",
    "heightInMeters": 72,
    "easting": 189400,
    "northing": 89900,
    "latitude": 52.057,
    "longitude": -8.153,
    "openYear": 2005,
    "closeYear": 0,
    "main": false
  },
  {
    "county": "Cork",
    "stationNumber": 5706,
    "name": "CASTLEMAGNER",
    "heightInMeters": 98,
    "easting": 142500,
    "northing": 103800,
    "latitude": 52.176,
    "longitude": -8.838,
    "openYear": 1984,
    "closeYear": 0,
    "main": false
  },
  {
    "county": "Cork",
    "stationNumber": 4604,
    "name": "CASTLEMARTYR (DOWER BR.)",
    "heightInMeters": 6,
    "easting": 198000,
    "northing": 72900,
    "latitude": 51.905,
    "longitude": -8.024,
    "openYear": 1976,
    "closeYear": 1985,
    "main": false
  },
  {
    "county": "Cork",
    "stationNumber": 6704,
    "name": "CASTLEMARTYR (KILLAMUCKY)",
    "heightInMeters": 18,
    "easting": 195300,
    "northing": 73900,
    "latitude": 51.917,
    "longitude": -8.067,
    "openYear": 2000,
    "closeYear": 2004,
    "main": false
  },
  {
    "county": "Cork",
    "stationNumber": 2104,
    "name": "CASTLEMARTYR G.S.",
    "heightInMeters": 14,
    "easting": 196100,
    "northing": 73200,
    "latitude": 51.907,
    "longitude": -8.054,
    "openYear": 1944,
    "closeYear": 1965,
    "main": false
  },
  {
    "county": "Cork",
    "stationNumber": 7504,
    "name": "CASTLEMARTYR-Dower_Pumphouse",
    "heightInMeters": 10,
    "easting": 197955,
    "northing": 72925,
    "latitude": 51.905,
    "longitude": -8.025,
    "openYear": 2016,
    "closeYear": 0,
    "main": false
  },
  {
    "county": "Cork",
    "stationNumber": 601,
    "name": "CASTLETOWNBERE (FILANE WEST)",
    "heightInMeters": 168,
    "easting": 71500,
    "northing": 47800,
    "latitude": 51.667,
    "longitude": -9.854,
    "openYear": 1948,
    "closeYear": 2003,
    "main": false
  },
  {
    "county": "Cork",
    "stationNumber": 1401,
    "name": "CASTLETOWNBERE (SOUTH DRUM)",
    "heightInMeters": 20,
    "easting": 66900,
    "northing": 45000,
    "latitude": 51.638,
    "longitude": -9.92,
    "openYear": 1981,
    "closeYear": 1982,
    "main": false
  },
  {
    "county": "Cork",
    "stationNumber": 1001,
    "name": "CASTLETOWNBERE G.S.",
    "heightInMeters": 5,
    "easting": 67600,
    "northing": 45900,
    "latitude": 51.65,
    "longitude": -9.908,
    "openYear": 1952,
    "closeYear": 1998,
    "main": false
  },
  {
    "county": "Cork",
    "stationNumber": 1501,
    "name": "CASTLETOWNBERE SOUTHDROUM II",
    "heightInMeters": 27,
    "easting": 67000,
    "northing": 45000,
    "latitude": 51.638,
    "longitude": -9.919,
    "openYear": 1982,
    "closeYear": 2006,
    "main": false
  },
  {
    "county": "Cork",
    "stationNumber": 6106,
    "name": "CASTLETOWNROCHE (NAGLESBOROUGH)",
    "heightInMeters": 67,
    "easting": 167400,
    "northing": 103400,
    "latitude": 52.175,
    "longitude": -8.473,
    "openYear": 1985,
    "closeYear": 1986,
    "main": false
  },
  {
    "county": "Cork",
    "stationNumber": 602,
    "name": "CASTLETOWNSHEND (GLENBARRAHANE)",
    "heightInMeters": 30,
    "easting": 119100,
    "northing": 31800,
    "latitude": 51.533,
    "longitude": -9.167,
    "openYear": 1940,
    "closeYear": 1943,
    "main": false
  },
  {
    "county": "Cork",
    "stationNumber": 702,
    "name": "CASTLETOWNSHEND (SEAFIELD)",
    "heightInMeters": 12,
    "easting": 119100,
    "northing": 31800,
    "latitude": 51.533,
    "longitude": -9.167,
    "openYear": 1940,
    "closeYear": 1943,
    "main": false
  },
  {
    "county": "Cork",
    "stationNumber": 3702,
    "name": "CASTLETOWNSHEND (THE ROCKET HOUS",
    "heightInMeters": 8,
    "easting": 118500,
    "northing": 30900,
    "latitude": 51.522,
    "longitude": -9.171,
    "openYear": 1981,
    "closeYear": 2000,
    "main": false
  },
  {
    "county": "Cork",
    "stationNumber": 1102,
    "name": "CASTLETOWNSHEND G.S.",
    "heightInMeters": 40,
    "easting": 118500,
    "northing": 31200,
    "latitude": 51.523,
    "longitude": -9.172,
    "openYear": 1950,
    "closeYear": 1960,
    "main": false
  },
  {
    "county": "Cork",
    "stationNumber": 3302,
    "name": "CLONAKILTY (DUNOWEN HSE.)",
    "heightInMeters": 55,
    "easting": 137200,
    "northing": 34000,
    "latitude": 51.553,
    "longitude": -8.903,
    "openYear": 1969,
    "closeYear": 1971,
    "main": false
  },
  {
    "county": "Cork",
    "stationNumber": 802,
    "name": "CLONAKILTY (SHANNON VALE)",
    "heightInMeters": 41,
    "easting": 138900,
    "northing": 44500,
    "latitude": 51.65,
    "longitude": -8.883,
    "openYear": 1957,
    "closeYear": 1966,
    "main": false
  },
  {
    "county": "Cork",
    "stationNumber": 2702,
    "name": "CLONAKILTY G.S.",
    "heightInMeters": 18,
    "easting": 138500,
    "northing": 41800,
    "latitude": 51.622,
    "longitude": -8.886,
    "openYear": 1950,
    "closeYear": 1964,
    "main": false
  },
  {
    "county": "Cork",
    "stationNumber": 1802,
    "name": "CLONAKILTY_(Agric.Coll.)",
    "heightInMeters": 79,
    "easting": 141395,
    "northing": 42310,
    "latitude": 51.625,
    "longitude": -8.842,
    "openYear": 1948,
    "closeYear": 1994,
    "main": false
  },
  {
    "county": "Cork",
    "stationNumber": 5202,
    "name": "CLONAKILTY_(Castleview)",
    "heightInMeters": 38,
    "easting": 142865,
    "northing": 44200,
    "latitude": 51.642,
    "longitude": -8.822,
    "openYear": 1999,
    "closeYear": 0,
    "main": false
  },
  {
    "county": "Cork",
    "stationNumber": 4704,
    "name": "CLOYNE (BALLYMACANDRICK)",
    "heightInMeters": 64,
    "easting": 190400,
    "northing": 64300,
    "latitude": 51.825,
    "longitude": -8.137,
    "openYear": 1976,
    "closeYear": 1990,
    "main": false
  },
  {
    "county": "Cork",
    "stationNumber": 6304,
    "name": "CLOYNE (LISANLEY)",
    "heightInMeters": 55,
    "easting": 190600,
    "northing": 67100,
    "latitude": 51.854,
    "longitude": -8.135,
    "openYear": 1996,
    "closeYear": 0,
    "main": false
  },
  {
    "county": "Cork",
    "stationNumber": 304,
    "name": "CLOYNE (THE DEANERY)",
    "heightInMeters": 24,
    "easting": 191800,
    "northing": 66900,
    "latitude": 51.853,
    "longitude": -8.118,
    "openYear": 1935,
    "closeYear": 1951,
    "main": false
  },
  {
    "county": "Cork",
    "stationNumber": 3104,
    "name": "CLOYNE G.S.",
    "heightInMeters": 26,
    "easting": 191500,
    "northing": 67800,
    "latitude": 51.858,
    "longitude": -8.121,
    "openYear": 1950,
    "closeYear": 1988,
    "main": false
  },
  {
    "county": "Cork",
    "stationNumber": 1904,
    "name": "COACHFORD G.S.",
    "heightInMeters": 68,
    "easting": 145500,
    "northing": 73200,
    "latitude": 51.905,
    "longitude": -8.788,
    "openYear": 1942,
    "closeYear": 1991,
    "main": false
  },
  {
    "county": "Cork",
    "stationNumber": 4906,
    "name": "CONNA (CARRIGEEN HILL)",
    "heightInMeters": 70,
    "easting": 195500,
    "northing": 95500,
    "latitude": 52.107,
    "longitude": -8.059,
    "openYear": 1981,
    "closeYear": 2002,
    "main": false
  },
  {
    "county": "Cork",
    "stationNumber": 8406,
    "name": "CONNA (CASTLEVIEW)",
    "heightInMeters": 30,
    "easting": 195600,
    "northing": 94500,
    "latitude": 52.102,
    "longitude": -8.058,
    "openYear": 2003,
    "closeYear": 0,
    "main": false
  },
  {
    "county": "Cork",
    "stationNumber": 6404,
    "name": "COOLEA (MILLEENS)",
    "heightInMeters": 198,
    "easting": 114400,
    "northing": 76500,
    "latitude": 51.934,
    "longitude": -9.24,
    "openYear": 1999,
    "closeYear": 2009,
    "main": false
  },
  {
    "county": "Cork",
    "stationNumber": 302,
    "name": "COOLKELURE HOUSE",
    "heightInMeters": 158,
    "easting": 117800,
    "northing": 53300,
    "latitude": 51.722,
    "longitude": -9.187,
    "openYear": 1948,
    "closeYear": 1948,
    "main": false
  },
  {
    "county": "Cork",
    "stationNumber": 1901,
    "name": "COOMCLOGH",
    "heightInMeters": 240,
    "easting": 112595,
    "northing": 58085,
    "latitude": 51.768,
    "longitude": -9.267,
    "openYear": 1993,
    "closeYear": 0,
    "main": false
  },
  {
    "county": "Cork",
    "stationNumber": 4204,
    "name": "CORK (CLOVER HILL)",
    "heightInMeters": 20,
    "easting": 171100,
    "northing": 70400,
    "latitude": 51.884,
    "longitude": -8.418,
    "openYear": 1975,
    "closeYear": 2014,
    "main": false
  },
  {
    "county": "Cork",
    "stationNumber": 5504,
    "name": "CORK (DOUGLAS)",
    "heightInMeters": 50,
    "easting": 170800,
    "northing": 69400,
    "latitude": 51.872,
    "longitude": -8.421,
    "openYear": 1984,
    "closeYear": 2014,
    "main": false
  },
  {
    "county": "Cork",
    "stationNumber": 5104,
    "name": "CORK (FOTA ISLAND)",
    "heightInMeters": 14,
    "easting": 179200,
    "northing": 71400,
    "latitude": 51.89,
    "longitude": -8.302,
    "openYear": 1977,
    "closeYear": 1990,
    "main": false
  },
  {
    "county": "Cork",
    "stationNumber": 5904,
    "name": "CORK (FOTA ISLAND) II",
    "heightInMeters": 12,
    "easting": 180000,
    "northing": 72000,
    "latitude": 51.9,
    "longitude": -8.287,
    "openYear": 1990,
    "closeYear": 1998,
    "main": false
  },
  {
    "county": "Cork",
    "stationNumber": 404,
    "name": "CORK (ROCHELLE SCHOOLS)",
    "heightInMeters": 15,
    "easting": 167100,
    "northing": 69300,
    "latitude": 51.872,
    "longitude": -8.473,
    "openYear": 1936,
    "closeYear": 1959,
    "main": false
  },
  {
    "county": "Cork",
    "stationNumber": 904,
    "name": "CORK (UNIV.COLL.)",
    "heightInMeters": 17,
    "easting": 166300,
    "northing": 71300,
    "latitude": 51.889,
    "longitude": -8.487,
    "openYear": 1862,
    "closeYear": 1994,
    "main": false
  },
  {
    "county": "Cork",
    "stationNumber": 1304,
    "name": "CORK (UNIV.COLL.FARM)",
    "heightInMeters": 23,
    "easting": 163800,
    "northing": 69600,
    "latitude": 51.873,
    "longitude": -8.522,
    "openYear": 1940,
    "closeYear": 1982,
    "main": false
  },
  {
    "county": "Cork",
    "stationNumber": 5404,
    "name": "CORK MONTENOTTE",
    "heightInMeters": 94,
    "easting": 169300,
    "northing": 72600,
    "latitude": 51.903,
    "longitude": -8.441,
    "openYear": 1984,
    "closeYear": 0,
    "main": false
  },
  {
    "county": "Cork",
    "stationNumber": 1404,
    "name": "CROOKSTOWN G.S.",
    "heightInMeters": 61,
    "easting": 144200,
    "northing": 67300,
    "latitude": 51.853,
    "longitude": -8.806,
    "openYear": 1942,
    "closeYear": 1990,
    "main": false
  },
  {
    "county": "Cork",
    "stationNumber": 3504,
    "name": "CROSSHAVEN G.S.",
    "heightInMeters": 6,
    "easting": 179000,
    "northing": 61200,
    "latitude": 51.802,
    "longitude": -8.303,
    "openYear": 1952,
    "closeYear": 1993,
    "main": false
  },
  {
    "county": "Cork",
    "stationNumber": 9006,
    "name": "Charleville_Golf_Club",
    "heightInMeters": 130,
    "easting": 151300,
    "northing": 121500,
    "latitude": 52.339,
    "longitude": -8.709,
    "openYear": 2010,
    "closeYear": 0,
    "main": false
  },
  {
    "county": "Cork",
    "stationNumber": 3904,
    "name": "Cork_Airport",
    "heightInMeters": 155,
    "easting": 166500,
    "northing": 66200,
    "latitude": 51.842,
    "longitude": -8.485,
    "openYear": 1961,
    "closeYear": 0,
    "main": true
  },
  {
    "county": "Cork",
    "stationNumber": 1706,
    "name": "DONERAILE G.S.",
    "heightInMeters": 79,
    "easting": 160000,
    "northing": 107200,
    "latitude": 52.209,
    "longitude": -8.584,
    "openYear": 1944,
    "closeYear": 1985,
    "main": false
  },
  {
    "county": "Cork",
    "stationNumber": 2804,
    "name": "DONOUGHMORE",
    "heightInMeters": 200,
    "easting": 149200,
    "northing": 82100,
    "latitude": 51.987,
    "longitude": -8.737,
    "openYear": 1948,
    "closeYear": 0,
    "main": false
  },
  {
    "county": "Cork",
    "stationNumber": 504,
    "name": "DOUGLAS RECTORY",
    "heightInMeters": 30,
    "easting": 170200,
    "northing": 68400,
    "latitude": 51.867,
    "longitude": -8.433,
    "openYear": 1941,
    "closeYear": 1949,
    "main": false
  },
  {
    "county": "Cork",
    "stationNumber": 1602,
    "name": "DRIMOLEAGUE G.S.",
    "heightInMeters": 61,
    "easting": 112500,
    "northing": 45800,
    "latitude": 51.655,
    "longitude": -9.259,
    "openYear": 1948,
    "closeYear": 1990,
    "main": false
  },
  {
    "county": "Cork",
    "stationNumber": 4502,
    "name": "DRIMOLEAGUE_(Angram)",
    "heightInMeters": 50,
    "easting": 110550,
    "northing": 44075,
    "latitude": 51.639,
    "longitude": -9.289,
    "openYear": 1994,
    "closeYear": 0,
    "main": false
  },
  {
    "county": "Cork",
    "stationNumber": 2902,
    "name": "DRINAGH (CO-OP.LTD.)",
    "heightInMeters": 91,
    "easting": 119800,
    "northing": 44200,
    "latitude": 51.64,
    "longitude": -9.155,
    "openYear": 1962,
    "closeYear": 1972,
    "main": false
  },
  {
    "county": "Cork",
    "stationNumber": 2202,
    "name": "DRINAGH G.S.",
    "heightInMeters": 114,
    "easting": 120100,
    "northing": 44500,
    "latitude": 51.642,
    "longitude": -9.153,
    "openYear": 1949,
    "closeYear": 1970,
    "main": false
  },
  {
    "county": "Cork",
    "stationNumber": 4804,
    "name": "DUNGOURNEY (BALLYEIGHTRAGH)",
    "heightInMeters": 157,
    "easting": 194800,
    "northing": 83100,
    "latitude": 52,
    "longitude": -8.072,
    "openYear": 1976,
    "closeYear": 2011,
    "main": false
  },
  {
    "county": "Cork",
    "stationNumber": 2402,
    "name": "DUNMANWAY (INCHANADREEN)",
    "heightInMeters": 125,
    "easting": 119400,
    "northing": 54500,
    "latitude": 51.736,
    "longitude": -9.167,
    "openYear": 1950,
    "closeYear": 1995,
    "main": false
  },
  {
    "county": "Cork",
    "stationNumber": 5302,
    "name": "DUNMANWAY (KEELARAHEEN)",
    "heightInMeters": 137,
    "easting": 122100,
    "northing": 57300,
    "latitude": 51.758,
    "longitude": -9.124,
    "openYear": 2000,
    "closeYear": 2010,
    "main": false
  },
  {
    "county": "Cork",
    "stationNumber": 1402,
    "name": "DUNMANWAY G.S.",
    "heightInMeters": 61,
    "easting": 123300,
    "northing": 52800,
    "latitude": 51.72,
    "longitude": -9.106,
    "openYear": 1948,
    "closeYear": 1997,
    "main": false
  },
  {
    "county": "Cork",
    "stationNumber": 4902,
    "name": "DUNMANWAY_(Demesne)",
    "heightInMeters": 78,
    "easting": 123720,
    "northing": 53350,
    "latitude": 51.723,
    "longitude": -9.103,
    "openYear": 1998,
    "closeYear": 0,
    "main": false
  },
  {
    "county": "Cork",
    "stationNumber": 801,
    "name": "DURRUS G.S.",
    "heightInMeters": 9,
    "easting": 94500,
    "northing": 41900,
    "latitude": 51.618,
    "longitude": -9.521,
    "openYear": 1950,
    "closeYear": 1987,
    "main": false
  },
  {
    "county": "Cork",
    "stationNumber": 1303,
    "name": "EYERIES G.S.",
    "heightInMeters": 47,
    "easting": 65000,
    "northing": 50300,
    "latitude": 51.687,
    "longitude": -9.952,
    "openYear": 1950,
    "closeYear": 1970,
    "main": false
  },
  {
    "county": "Cork",
    "stationNumber": 804,
    "name": "FARMER'S CROSS (CORK APT.SITE)",
    "heightInMeters": 165,
    "easting": 166700,
    "northing": 66200,
    "latitude": 51.842,
    "longitude": -8.483,
    "openYear": 1959,
    "closeYear": 1962,
    "main": false
  },
  {
    "county": "Cork",
    "stationNumber": 4806,
    "name": "FERMOY (COOLNAKILLA)",
    "heightInMeters": 213,
    "easting": 176400,
    "northing": 94900,
    "latitude": 52.103,
    "longitude": -8.34,
    "openYear": 1978,
    "closeYear": 1992,
    "main": false
  },
  {
    "county": "Cork",
    "stationNumber": 3606,
    "name": "FERMOY (MOORE PARK)",
    "heightInMeters": 55,
    "easting": 181900,
    "northing": 101400,
    "latitude": 52.158,
    "longitude": -8.258,
    "openYear": 1961,
    "closeYear": 2010,
    "main": false
  },
  {
    "county": "Cork",
    "stationNumber": 2606,
    "name": "FERMOY G.S.",
    "heightInMeters": 31,
    "easting": 181000,
    "northing": 98400,
    "latitude": 52.136,
    "longitude": -8.273,
    "openYear": 1944,
    "closeYear": 1980,
    "main": false
  },
  {
    "county": "Cork",
    "stationNumber": 6604,
    "name": "FOTA ISLAND (GOLF CLUB)",
    "heightInMeters": 15,
    "easting": 179600,
    "northing": 71800,
    "latitude": 51.892,
    "longitude": -8.291,
    "openYear": 1999,
    "closeYear": 0,
    "main": false
  },
  {
    "county": "Cork",
    "stationNumber": 5806,
    "name": "FREEMOUNT PUMPING STATION",
    "heightInMeters": 137,
    "easting": 139300,
    "northing": 113900,
    "latitude": 52.271,
    "longitude": -8.887,
    "openYear": 1984,
    "closeYear": 0,
    "main": false
  },
  {
    "county": "Cork",
    "stationNumber": 7104,
    "name": "GERNAPEKA",
    "heightInMeters": 152,
    "easting": 110360,
    "northing": 65930,
    "latitude": 51.837,
    "longitude": -9.301,
    "openYear": 2009,
    "closeYear": 0,
    "main": false
  },
  {
    "county": "Cork",
    "stationNumber": 902,
    "name": "GLANDORE RECTORY",
    "heightInMeters": 46,
    "easting": 122000,
    "northing": 35300,
    "latitude": 51.559,
    "longitude": -9.122,
    "openYear": 1946,
    "closeYear": 1949,
    "main": false
  },
  {
    "county": "Cork",
    "stationNumber": 3404,
    "name": "GLANMIRE (NORTHESK)",
    "heightInMeters": 5,
    "easting": 173800,
    "northing": 72500,
    "latitude": 51.903,
    "longitude": -8.375,
    "openYear": 1952,
    "closeYear": 1960,
    "main": false
  },
  {
    "county": "Cork",
    "stationNumber": 2306,
    "name": "GLANTAINE G.S.",
    "heightInMeters": 94,
    "easting": 148800,
    "northing": 95000,
    "latitude": 52.103,
    "longitude": -8.742,
    "openYear": 1944,
    "closeYear": 1984,
    "main": false
  },
  {
    "county": "Cork",
    "stationNumber": 201,
    "name": "GLENGARRIFF (Ilnacullin)",
    "heightInMeters": 7,
    "easting": 93200,
    "northing": 54700,
    "latitude": 51.734,
    "longitude": -9.541,
    "openYear": 1940,
    "closeYear": 0,
    "main": false
  },
  {
    "county": "Cork",
    "stationNumber": 1701,
    "name": "GLENGARRIFF (ROSSDOON)",
    "heightInMeters": 6,
    "easting": 93500,
    "northing": 56400,
    "latitude": 51.75,
    "longitude": -9.539,
    "openYear": 1990,
    "closeYear": 2008,
    "main": false
  },
  {
    "county": "Cork",
    "stationNumber": 7206,
    "name": "GLENVILLE (GLENASACK)",
    "heightInMeters": 201,
    "easting": 167600,
    "northing": 91900,
    "latitude": 52.074,
    "longitude": -8.47,
    "openYear": 1993,
    "closeYear": 1997,
    "main": false
  },
  {
    "county": "Cork",
    "stationNumber": 2406,
    "name": "GLENVILLE G.S.",
    "heightInMeters": 152,
    "easting": 170900,
    "northing": 88100,
    "latitude": 52.04,
    "longitude": -8.421,
    "openYear": 1944,
    "closeYear": 1996,
    "main": false
  },
  {
    "county": "Cork",
    "stationNumber": 4802,
    "name": "GOLEEN",
    "heightInMeters": 48,
    "easting": 81850,
    "northing": 29510,
    "latitude": 51.504,
    "longitude": -9.702,
    "openYear": 1997,
    "closeYear": 0,
    "main": false
  },
  {
    "county": "Cork",
    "stationNumber": 2704,
    "name": "GOUGANEBARRA",
    "heightInMeters": 183,
    "easting": 109500,
    "northing": 66000,
    "latitude": 51.837,
    "longitude": -9.308,
    "openYear": 1948,
    "closeYear": 2009,
    "main": false
  },
  {
    "county": "Cork",
    "stationNumber": 3704,
    "name": "INISHCARRA (GEN.STN.)",
    "heightInMeters": 24,
    "easting": 154500,
    "northing": 72200,
    "latitude": 51.9,
    "longitude": -8.657,
    "openYear": 1954,
    "closeYear": 0,
    "main": false
  },
  {
    "county": "Cork",
    "stationNumber": 1002,
    "name": "INNISHANNON G.S.",
    "heightInMeters": 8,
    "easting": 154700,
    "northing": 57000,
    "latitude": 51.758,
    "longitude": -8.653,
    "openYear": 1950,
    "closeYear": 1962,
    "main": false
  },
  {
    "county": "Cork",
    "stationNumber": 3802,
    "name": "INNISHANNONN (SKEVENISH)",
    "heightInMeters": 91,
    "easting": 153900,
    "northing": 59000,
    "latitude": 51.775,
    "longitude": -8.667,
    "openYear": 1981,
    "closeYear": 1985,
    "main": false
  },
  {
    "county": "Cork",
    "stationNumber": 106,
    "name": "KANTURK (CASTLECOR)",
    "heightInMeters": 107,
    "easting": 148400,
    "northing": 106200,
    "latitude": 52.203,
    "longitude": -8.753,
    "openYear": 1936,
    "closeYear": 1958,
    "main": false
  },
  {
    "county": "Cork",
    "stationNumber": 1406,
    "name": "KANTURK_(Voc.Sch.)",
    "heightInMeters": 104,
    "easting": 138400,
    "northing": 103300,
    "latitude": 52.173,
    "longitude": -8.9,
    "openYear": 1944,
    "closeYear": 0,
    "main": false
  },
  {
    "county": "Cork",
    "stationNumber": 901,
    "name": "KEALKIL G.S.",
    "heightInMeters": 61,
    "easting": 104500,
    "northing": 55400,
    "latitude": 51.739,
    "longitude": -9.383,
    "openYear": 1950,
    "closeYear": 1969,
    "main": false
  },
  {
    "county": "Cork",
    "stationNumber": 2001,
    "name": "KEALKILL EAST",
    "heightInMeters": 73,
    "easting": 105900,
    "northing": 56200,
    "latitude": 51.75,
    "longitude": -9.357,
    "openYear": 1993,
    "closeYear": 2008,
    "main": false
  },
  {
    "county": "Cork",
    "stationNumber": 1301,
    "name": "KEALKILL(MAUGHANACLEA)",
    "heightInMeters": 152,
    "easting": 109500,
    "northing": 57000,
    "latitude": 51.755,
    "longitude": -9.307,
    "openYear": 1978,
    "closeYear": 1990,
    "main": false
  },
  {
    "county": "Cork",
    "stationNumber": 2502,
    "name": "KILBRITTAIN G.S.",
    "heightInMeters": 32,
    "easting": 152300,
    "northing": 47000,
    "latitude": 51.671,
    "longitude": -8.687,
    "openYear": 1950,
    "closeYear": 2012,
    "main": false
  },
  {
    "county": "Cork",
    "stationNumber": 1601,
    "name": "KILCROHANE (ROSSKERRIG)",
    "heightInMeters": 49,
    "easting": 84700,
    "northing": 38400,
    "latitude": 51.585,
    "longitude": -9.658,
    "openYear": 1984,
    "closeYear": 1987,
    "main": false
  },
  {
    "county": "Cork",
    "stationNumber": 701,
    "name": "KILCROHANE G.S.",
    "heightInMeters": 40,
    "easting": 81900,
    "northing": 37800,
    "latitude": 51.575,
    "longitude": -9.703,
    "openYear": 1950,
    "closeYear": 1960,
    "main": false
  },
  {
    "county": "Cork",
    "stationNumber": 5606,
    "name": "KILDORRERY",
    "heightInMeters": 107,
    "easting": 171300,
    "northing": 110600,
    "latitude": 52.241,
    "longitude": -8.419,
    "openYear": 1984,
    "closeYear": 1994,
    "main": false
  },
  {
    "county": "Cork",
    "stationNumber": 4406,
    "name": "KILDORRERY G.S.",
    "heightInMeters": 94,
    "easting": 170800,
    "northing": 110400,
    "latitude": 52.24,
    "longitude": -8.423,
    "openYear": 1944,
    "closeYear": 1962,
    "main": false
  },
  {
    "county": "Cork",
    "stationNumber": 4904,
    "name": "KILLEAGH_(Monabraher)",
    "heightInMeters": 98,
    "easting": 201000,
    "northing": 80600,
    "latitude": 51.973,
    "longitude": -7.985,
    "openYear": 1976,
    "closeYear": 0,
    "main": false
  },
  {
    "county": "Cork",
    "stationNumber": 7304,
    "name": "KILLEAGH_Mogeely",
    "heightInMeters": 39,
    "easting": 198135,
    "northing": 76630,
    "latitude": 51.939,
    "longitude": -8.023,
    "openYear": 2014,
    "closeYear": 0,
    "main": false
  },
  {
    "county": "Cork",
    "stationNumber": 2706,
    "name": "KILWORTH G.S.",
    "heightInMeters": 69,
    "easting": 182900,
    "northing": 102800,
    "latitude": 52.172,
    "longitude": -8.25,
    "openYear": 1944,
    "closeYear": 1975,
    "main": false
  },
  {
    "county": "Cork",
    "stationNumber": 102,
    "name": "KINSALE (Nohoval Rectory)",
    "heightInMeters": 54,
    "easting": 172400,
    "northing": 51700,
    "latitude": 51.717,
    "longitude": -8.4,
    "openYear": 1940,
    "closeYear": 1945,
    "main": false
  },
  {
    "county": "Cork",
    "stationNumber": 3502,
    "name": "KINSALE (RATHBEG)",
    "heightInMeters": 52,
    "easting": 163700,
    "northing": 51200,
    "latitude": 51.708,
    "longitude": -8.522,
    "openYear": 1974,
    "closeYear": 1989,
    "main": false
  },
  {
    "county": "Cork",
    "stationNumber": 1202,
    "name": "KINSALE (SCILLY HSE.)",
    "heightInMeters": 19,
    "easting": 163900,
    "northing": 50600,
    "latitude": 51.704,
    "longitude": -8.52,
    "openYear": 1921,
    "closeYear": 1966,
    "main": false
  },
  {
    "county": "Cork",
    "stationNumber": 3102,
    "name": "KINSALE (ST.JOSEPH,S CONVENT)",
    "heightInMeters": 43,
    "easting": 163700,
    "northing": 50100,
    "latitude": 51.701,
    "longitude": -8.522,
    "openYear": 1963,
    "closeYear": 1974,
    "main": false
  },
  {
    "county": "Cork",
    "stationNumber": 202,
    "name": "KINSALE (WALTON COURT)",
    "heightInMeters": 15,
    "easting": 169900,
    "northing": 49800,
    "latitude": 51.7,
    "longitude": -8.435,
    "openYear": 1945,
    "closeYear": 1951,
    "main": false
  },
  {
    "county": "Cork",
    "stationNumber": 2802,
    "name": "KINSALE_(Voc.Sch.)",
    "heightInMeters": 30,
    "easting": 163475,
    "northing": 50450,
    "latitude": 51.704,
    "longitude": -8.524,
    "openYear": 1952,
    "closeYear": 0,
    "main": false
  },
  {
    "county": "Cork",
    "stationNumber": 8706,
    "name": "Kilworth-Kilally",
    "heightInMeters": 108,
    "easting": 182300,
    "northing": 104000,
    "latitude": 52.186,
    "longitude": -8.255,
    "openYear": 2008,
    "closeYear": 0,
    "main": false
  },
  {
    "county": "Cork",
    "stationNumber": 7004,
    "name": "LADYSBRIDGE-Parknahyla",
    "heightInMeters": 70,
    "easting": 196500,
    "northing": 70300,
    "latitude": 51.884,
    "longitude": -8.05,
    "openYear": 2009,
    "closeYear": 2016,
    "main": false
  },
  {
    "county": "Cork",
    "stationNumber": 2302,
    "name": "LEAP G.S.",
    "heightInMeters": 32,
    "easting": 121400,
    "northing": 37200,
    "latitude": 51.576,
    "longitude": -9.134,
    "openYear": 1949,
    "closeYear": 1970,
    "main": false
  },
  {
    "county": "Cork",
    "stationNumber": 5080,
    "name": "LH_FASTNET",
    "heightInMeters": 10,
    "easting": 88400,
    "northing": 16400,
    "latitude": 51.387,
    "longitude": -9.602,
    "openYear": 2000,
    "closeYear": 0,
    "main": false
  },
  {
    "county": "Cork",
    "stationNumber": 5180,
    "name": "LH_ROCHES_POINT",
    "heightInMeters": 27,
    "easting": 182400,
    "northing": 60100,
    "latitude": 51.789,
    "longitude": -8.253,
    "openYear": 2000,
    "closeYear": 0,
    "main": false
  },
  {
    "county": "Cork",
    "stationNumber": 4702,
    "name": "LISHEEN",
    "heightInMeters": 40,
    "easting": 103530,
    "northing": 31055,
    "latitude": 51.521,
    "longitude": -9.388,
    "openYear": 1997,
    "closeYear": 2016,
    "main": false
  },
  {
    "county": "Cork",
    "stationNumber": 6504,
    "name": "LITTLE ISLAND",
    "heightInMeters": 15,
    "easting": 175600,
    "northing": 73700,
    "latitude": 51.909,
    "longitude": -8.353,
    "openYear": 1999,
    "closeYear": 0,
    "main": false
  },
  {
    "county": "Cork",
    "stationNumber": 8806,
    "name": "LOMBARDSTOWN-Gortmore",
    "heightInMeters": 128,
    "easting": 144300,
    "northing": 95600,
    "latitude": 52.106,
    "longitude": -8.808,
    "openYear": 2008,
    "closeYear": 0,
    "main": false
  },
  {
    "county": "Cork",
    "stationNumber": 6206,
    "name": "LOMBARDSTOWN_(Drompeach)",
    "heightInMeters": 134,
    "easting": 146300,
    "northing": 94200,
    "latitude": 52.091,
    "longitude": -8.784,
    "openYear": 1985,
    "closeYear": 0,
    "main": false
  },
  {
    "county": "Cork",
    "stationNumber": 3602,
    "name": "LOUGH HYNE",
    "heightInMeters": 24,
    "easting": 109800,
    "northing": 29000,
    "latitude": 51.504,
    "longitude": -9.3,
    "openYear": 1976,
    "closeYear": 1977,
    "main": false
  },
  {
    "county": "Cork",
    "stationNumber": 9604,
    "name": "M.BALLINGEARY_(Meelin-Mtn.)",
    "heightInMeters": 341,
    "easting": 114000,
    "northing": 71600,
    "latitude": 51.887,
    "longitude": -9.25,
    "openYear": 1948,
    "closeYear": 0,
    "main": false
  },
  {
    "county": "Cork",
    "stationNumber": 9704,
    "name": "M.BALLINGEARY_(Tooreenaneen)",
    "heightInMeters": 323,
    "easting": 113100,
    "northing": 64500,
    "latitude": 51.822,
    "longitude": -9.257,
    "openYear": 1948,
    "closeYear": 0,
    "main": false
  },
  {
    "county": "Cork",
    "stationNumber": 9804,
    "name": "M.BALLYVOURNEY_(Knockacommeen)",
    "heightInMeters": 415,
    "easting": 116000,
    "northing": 80700,
    "latitude": 51.97,
    "longitude": -9.22,
    "openYear": 1948,
    "closeYear": 0,
    "main": false
  },
  {
    "county": "Cork",
    "stationNumber": 9602,
    "name": "M.CAPE CLEAR BIRD OBSERVATIONS",
    "heightInMeters": 15,
    "easting": 95300,
    "northing": 21900,
    "latitude": 51.437,
    "longitude": -9.504,
    "openYear": 1985,
    "closeYear": 1988,
    "main": false
  },
  {
    "county": "Cork",
    "stationNumber": 9702,
    "name": "M.COOLKELURE (DROMDRASDIL)",
    "heightInMeters": 232,
    "easting": 117300,
    "northing": 54300,
    "latitude": 51.734,
    "longitude": -9.192,
    "openYear": 1948,
    "closeYear": 1949,
    "main": false
  },
  {
    "county": "Cork",
    "stationNumber": 9802,
    "name": "M.COOLKELURE (PIG'S HILL)",
    "heightInMeters": 320,
    "easting": 115700,
    "northing": 52000,
    "latitude": 51.708,
    "longitude": -9.218,
    "openYear": 1948,
    "closeYear": 1949,
    "main": false
  },
  {
    "county": "Cork",
    "stationNumber": 9904,
    "name": "M.INCHIGEELAGH_(Pipe-Hill)",
    "heightInMeters": 299,
    "easting": 120100,
    "northing": 62100,
    "latitude": 51.803,
    "longitude": -9.155,
    "openYear": 1948,
    "closeYear": 0,
    "main": false
  },
  {
    "county": "Cork",
    "stationNumber": 9906,
    "name": "M.MALLOW FOREST",
    "heightInMeters": 229,
    "easting": 160200,
    "northing": 115100,
    "latitude": 52.285,
    "longitude": -8.583,
    "openYear": 1995,
    "closeYear": 2007,
    "main": false
  },
  {
    "county": "Cork",
    "stationNumber": 9902,
    "name": "M.SCHULL (MT.GABRIEL)",
    "heightInMeters": 396,
    "easting": 93200,
    "northing": 34800,
    "latitude": 51.553,
    "longitude": -9.537,
    "openYear": 1948,
    "closeYear": 1955,
    "main": false
  },
  {
    "county": "Cork",
    "stationNumber": 2004,
    "name": "MACROOM (GLENDAV FOREST)",
    "heightInMeters": 287,
    "easting": 123300,
    "northing": 80400,
    "latitude": 51.969,
    "longitude": -9.117,
    "openYear": 1942,
    "closeYear": 1974,
    "main": false
  },
  {
    "county": "Cork",
    "stationNumber": 1604,
    "name": "MACROOM G.S.",
    "heightInMeters": 75,
    "easting": 133700,
    "northing": 73200,
    "latitude": 51.904,
    "longitude": -8.958,
    "openYear": 1942,
    "closeYear": 1996,
    "main": false
  },
  {
    "county": "Cork",
    "stationNumber": 7604,
    "name": "MACROOM-Kilnamartyra",
    "heightInMeters": 165,
    "easting": 122365,
    "northing": 72330,
    "latitude": 51.892,
    "longitude": -9.124,
    "openYear": 2017,
    "closeYear": 0,
    "main": false
  },
  {
    "county": "Cork",
    "stationNumber": 7204,
    "name": "MACROOM_(Cahirbaroule)",
    "heightInMeters": 206,
    "easting": 136100,
    "northing": 78000,
    "latitude": 51.951,
    "longitude": -8.924,
    "openYear": 2013,
    "closeYear": 0,
    "main": false
  },
  {
    "county": "Cork",
    "stationNumber": 5204,
    "name": "MACROOM_(Curraleigh)",
    "heightInMeters": 229,
    "easting": 126300,
    "northing": 80700,
    "latitude": 51.971,
    "longitude": -9.07,
    "openYear": 1977,
    "closeYear": 0,
    "main": false
  },
  {
    "county": "Cork",
    "stationNumber": 3804,
    "name": "MACROOM_(Renaniree)",
    "heightInMeters": 198,
    "easting": 120100,
    "northing": 72600,
    "latitude": 51.9,
    "longitude": -9.157,
    "openYear": 1959,
    "closeYear": 0,
    "main": false
  },
  {
    "county": "Cork",
    "stationNumber": 6606,
    "name": "MALLOW (SEWAGE TREATMENT WORKS)",
    "heightInMeters": 55,
    "easting": 157600,
    "northing": 98000,
    "latitude": 52.126,
    "longitude": -8.619,
    "openYear": 1988,
    "closeYear": 2012,
    "main": false
  },
  {
    "county": "Cork",
    "stationNumber": 2906,
    "name": "MALLOW (SUGAR FACTORY)",
    "heightInMeters": 52,
    "easting": 151900,
    "northing": 97400,
    "latitude": 52.122,
    "longitude": -8.702,
    "openYear": 1950,
    "closeYear": 1985,
    "main": false
  },
  {
    "county": "Cork",
    "stationNumber": 9306,
    "name": "MALLOW-Racecourse",
    "heightInMeters": 53,
    "easting": 153130,
    "northing": 97550,
    "latitude": 52.124,
    "longitude": -8.684,
    "openYear": 2013,
    "closeYear": 0,
    "main": false
  },
  {
    "county": "Cork",
    "stationNumber": 7406,
    "name": "MALLOW_(SpaHouse)",
    "heightInMeters": 61,
    "easting": 156500,
    "northing": 98700,
    "latitude": 52.137,
    "longitude": -8.634,
    "openYear": 1996,
    "closeYear": 0,
    "main": false
  },
  {
    "county": "Cork",
    "stationNumber": 706,
    "name": "MALLOW_Hazelwood",
    "heightInMeters": 94,
    "easting": 155600,
    "northing": 104500,
    "latitude": 52.187,
    "longitude": -8.65,
    "openYear": 1925,
    "closeYear": 0,
    "main": false
  },
  {
    "county": "Cork",
    "stationNumber": 1506,
    "name": "MEELIN G.S.",
    "heightInMeters": 238,
    "easting": 129700,
    "northing": 113000,
    "latitude": 52.258,
    "longitude": -9.024,
    "openYear": 1944,
    "closeYear": 1979,
    "main": false
  },
  {
    "county": "Cork",
    "stationNumber": 6904,
    "name": "MIDLETON (KILVA)",
    "heightInMeters": 72,
    "easting": 189800,
    "northing": 69300,
    "latitude": 51.872,
    "longitude": -8.142,
    "openYear": 2005,
    "closeYear": 2006,
    "main": false
  },
  {
    "county": "Cork",
    "stationNumber": 4304,
    "name": "MIDLETON (TEMPLENACARRIGA)",
    "heightInMeters": 110,
    "easting": 186700,
    "northing": 78900,
    "latitude": 51.958,
    "longitude": -8.189,
    "openYear": 1976,
    "closeYear": 1993,
    "main": false
  },
  {
    "county": "Cork",
    "stationNumber": 604,
    "name": "MIDLETON RECTORY",
    "heightInMeters": 11,
    "easting": 188500,
    "northing": 73800,
    "latitude": 51.917,
    "longitude": -8.167,
    "openYear": 1943,
    "closeYear": 1946,
    "main": false
  },
  {
    "county": "Cork",
    "stationNumber": 704,
    "name": "MIDLETON S.W.S.",
    "heightInMeters": 11,
    "easting": 185900,
    "northing": 72500,
    "latitude": 51.903,
    "longitude": -8.203,
    "openYear": 1946,
    "closeYear": 1955,
    "main": false
  },
  {
    "county": "Cork",
    "stationNumber": 3611,
    "name": "MILFORD G.S.",
    "heightInMeters": 140,
    "easting": 141000,
    "northing": 120700,
    "latitude": 52.334,
    "longitude": -8.859,
    "openYear": 1951,
    "closeYear": 1987,
    "main": false
  },
  {
    "county": "Cork",
    "stationNumber": 5511,
    "name": "MILFORD G.S. II",
    "heightInMeters": 107,
    "easting": 141700,
    "northing": 121500,
    "latitude": 52.339,
    "longitude": -8.854,
    "openYear": 1987,
    "closeYear": 2000,
    "main": false
  },
  {
    "county": "Cork",
    "stationNumber": 806,
    "name": "MILLSTREET CONVENT",
    "heightInMeters": 126,
    "easting": 126700,
    "northing": 90300,
    "latitude": 52.056,
    "longitude": -9.068,
    "openYear": 1936,
    "closeYear": 1988,
    "main": false
  },
  {
    "county": "Cork",
    "stationNumber": 3506,
    "name": "MILLSTREET G.S.",
    "heightInMeters": 126,
    "easting": 127200,
    "northing": 90300,
    "latitude": 52.056,
    "longitude": -9.057,
    "openYear": 1952,
    "closeYear": 1974,
    "main": false
  },
  {
    "county": "Cork",
    "stationNumber": 6506,
    "name": "MILLSTREET SEWAGE WORKS",
    "heightInMeters": 101,
    "easting": 127500,
    "northing": 91000,
    "latitude": 52.06,
    "longitude": -9.055,
    "openYear": 1986,
    "closeYear": 0,
    "main": false
  },
  {
    "county": "Cork",
    "stationNumber": 6906,
    "name": "MILLSTREET_(Coomlogane)",
    "heightInMeters": 113,
    "easting": 126000,
    "northing": 90900,
    "latitude": 52.059,
    "longitude": -9.074,
    "openYear": 1991,
    "closeYear": 0,
    "main": false
  },
  {
    "county": "Cork",
    "stationNumber": 7806,
    "name": "MITCHELSTOWMN (CORK STREET)",
    "heightInMeters": 91,
    "easting": 181700,
    "northing": 112800,
    "latitude": 52.267,
    "longitude": -8.267,
    "openYear": 2000,
    "closeYear": 2009,
    "main": false
  },
  {
    "county": "Cork",
    "stationNumber": 6706,
    "name": "MITCHELSTOWN (CORRACUNNA)",
    "heightInMeters": 110,
    "easting": 182700,
    "northing": 114300,
    "latitude": 52.275,
    "longitude": -8.252,
    "openYear": 1988,
    "closeYear": 1988,
    "main": false
  },
  {
    "county": "Cork",
    "stationNumber": 4506,
    "name": "MITCHELSTOWN CONVENT",
    "heightInMeters": 119,
    "easting": 181900,
    "northing": 112600,
    "latitude": 52.259,
    "longitude": -8.259,
    "openYear": 1968,
    "closeYear": 1981,
    "main": false
  },
  {
    "county": "Cork",
    "stationNumber": 1806,
    "name": "MITCHELSTOWN G.S.",
    "heightInMeters": 105,
    "easting": 181600,
    "northing": 112500,
    "latitude": 52.258,
    "longitude": -8.268,
    "openYear": 1944,
    "closeYear": 1979,
    "main": false
  },
  {
    "county": "Cork",
    "stationNumber": 8206,
    "name": "MITCHELSTOWN_(Glenatluckey)",
    "heightInMeters": 168,
    "easting": 183000,
    "northing": 109700,
    "latitude": 52.237,
    "longitude": -8.242,
    "openYear": 2001,
    "closeYear": 0,
    "main": false
  },
  {
    "county": "Cork",
    "stationNumber": 8906,
    "name": "MUSHERA",
    "heightInMeters": 300,
    "easting": 131315,
    "northing": 86540,
    "latitude": 52.023,
    "longitude": -9.001,
    "openYear": 2010,
    "closeYear": 0,
    "main": false
  },
  {
    "county": "Cork",
    "stationNumber": 6104,
    "name": "MUSKERRY (GOLF CLUB)",
    "heightInMeters": 46,
    "easting": 158000,
    "northing": 74300,
    "latitude": 51.918,
    "longitude": -8.606,
    "openYear": 1995,
    "closeYear": 0,
    "main": false
  },
  {
    "county": "Cork",
    "stationNumber": 9206,
    "name": "Mallow(Lavally_Lower)",
    "heightInMeters": 145,
    "easting": 159281,
    "northing": 97560,
    "latitude": 52.124,
    "longitude": -8.59,
    "openYear": 2013,
    "closeYear": 2016,
    "main": false
  },
  {
    "county": "Cork",
    "stationNumber": 575,
    "name": "Moore_Park",
    "heightInMeters": 46,
    "easting": 181900,
    "northing": 101400,
    "latitude": 52.158,
    "longitude": -8.258,
    "openYear": 2003,
    "closeYear": 0,
    "main": true
  },
  {
    "county": "Cork",
    "stationNumber": 5206,
    "name": "NEWMARKET BALLINATONA P.H.",
    "heightInMeters": 192,
    "easting": 128400,
    "northing": 112300,
    "latitude": 52.255,
    "longitude": -9.043,
    "openYear": 1982,
    "closeYear": 0,
    "main": false
  },
  {
    "county": "Cork",
    "stationNumber": 1306,
    "name": "NEWMARKET G.S.",
    "heightInMeters": 157,
    "easting": 131800,
    "northing": 107400,
    "latitude": 52.208,
    "longitude": -8.992,
    "openYear": 1944,
    "closeYear": 1986,
    "main": false
  },
  {
    "county": "Cork",
    "stationNumber": 7306,
    "name": "NEWMARKET_(New-Street)",
    "heightInMeters": 152,
    "easting": 131600,
    "northing": 107500,
    "latitude": 52.209,
    "longitude": -9.001,
    "openYear": 1993,
    "closeYear": 0,
    "main": false
  },
  {
    "county": "Cork",
    "stationNumber": 3304,
    "name": "PASSAGE WEST G.S.",
    "heightInMeters": 6,
    "easting": 177200,
    "northing": 68200,
    "latitude": 51.859,
    "longitude": -8.325,
    "openYear": 1950,
    "closeYear": 1994,
    "main": false
  },
  {
    "county": "Cork",
    "stationNumber": 406,
    "name": "RATHCOOLE G.S.",
    "heightInMeters": 99,
    "easting": 133100,
    "northing": 94100,
    "latitude": 52.09,
    "longitude": -8.972,
    "openYear": 1944,
    "closeYear": 1956,
    "main": false
  },
  {
    "county": "Cork",
    "stationNumber": 2506,
    "name": "RATHCORMAC G.S.",
    "heightInMeters": 55,
    "easting": 180600,
    "northing": 91600,
    "latitude": 52.072,
    "longitude": -8.283,
    "openYear": 1944,
    "closeYear": 1995,
    "main": false
  },
  {
    "county": "Cork",
    "stationNumber": 1504,
    "name": "RATHDUFF G.S.",
    "heightInMeters": 138,
    "easting": 159800,
    "northing": 84800,
    "latitude": 52.008,
    "longitude": -8.585,
    "openYear": 1942,
    "closeYear": 2013,
    "main": false
  },
  {
    "county": "Cork",
    "stationNumber": 3706,
    "name": "RATHLUIRC (FOR.STN.)",
    "heightInMeters": 131,
    "easting": 157300,
    "northing": 118500,
    "latitude": 52.317,
    "longitude": -8.622,
    "openYear": 1962,
    "closeYear": 2012,
    "main": false
  },
  {
    "county": "Cork",
    "stationNumber": 2711,
    "name": "RATHLUIRC (TRANS.STN.)",
    "heightInMeters": 114,
    "easting": 153400,
    "northing": 121900,
    "latitude": 52.342,
    "longitude": -8.683,
    "openYear": 1944,
    "closeYear": 1969,
    "main": false
  },
  {
    "county": "Cork",
    "stationNumber": 3210,
    "name": "ROCKCHAPEL",
    "heightInMeters": 259,
    "easting": 122800,
    "northing": 116000,
    "latitude": 52.287,
    "longitude": -9.126,
    "openYear": 2010,
    "closeYear": 0,
    "main": false
  },
  {
    "county": "Cork",
    "stationNumber": 2410,
    "name": "ROCKCHAPEL (CAPPAPHAUDEEN)",
    "heightInMeters": 256,
    "easting": 116000,
    "northing": 110800,
    "latitude": 52.239,
    "longitude": -9.225,
    "openYear": 1982,
    "closeYear": 2009,
    "main": false
  },
  {
    "county": "Cork",
    "stationNumber": 210,
    "name": "ROCKCHAPEL G.S.",
    "heightInMeters": 198,
    "easting": 121700,
    "northing": 115900,
    "latitude": 52.287,
    "longitude": -9.142,
    "openYear": 1941,
    "closeYear": 1954,
    "main": false
  },
  {
    "county": "Cork",
    "stationNumber": 4202,
    "name": "ROSSCARBERY_(Froe)",
    "heightInMeters": 37,
    "easting": 128320,
    "northing": 38460,
    "latitude": 51.59,
    "longitude": -9.034,
    "openYear": 1985,
    "closeYear": 0,
    "main": false
  },
  {
    "county": "Cork",
    "stationNumber": 6804,
    "name": "ROSTELLAN",
    "heightInMeters": 15,
    "easting": 187500,
    "northing": 65400,
    "latitude": 51.838,
    "longitude": -8.175,
    "openYear": 2003,
    "closeYear": 2003,
    "main": false
  },
  {
    "county": "Cork",
    "stationNumber": 1004,
    "name": "Roches Point",
    "heightInMeters": 43,
    "easting": 183100,
    "northing": 60100,
    "latitude": 51.789,
    "longitude": -8.24,
    "openYear": 1877,
    "closeYear": 2008,
    "main": false
  },
  {
    "county": "Cork",
    "stationNumber": 1075,
    "name": "Roches_Point",
    "heightInMeters": 40,
    "easting": 182779,
    "northing": 60625,
    "latitude": 51.789,
    "longitude": -8.24,
    "openYear": 2004,
    "closeYear": 0,
    "main": true
  },
  {
    "county": "Cork",
    "stationNumber": 1302,
    "name": "SCHULL G.S.",
    "heightInMeters": 3,
    "easting": 93000,
    "northing": 31700,
    "latitude": 51.523,
    "longitude": -9.538,
    "openYear": 1948,
    "closeYear": 1985,
    "main": false
  },
  {
    "county": "Cork",
    "stationNumber": 3902,
    "name": "SCHULL WHITE CASTLE COTTAGE",
    "heightInMeters": 59,
    "easting": 95000,
    "northing": 31400,
    "latitude": 51.522,
    "longitude": -9.508,
    "openYear": 1982,
    "closeYear": 2007,
    "main": false
  },
  {
    "county": "Cork",
    "stationNumber": 4004,
    "name": "SHANAGARRY (IMOKILLY ORCHARDS)",
    "heightInMeters": 15,
    "easting": 198100,
    "northing": 67300,
    "latitude": 51.855,
    "longitude": -8.023,
    "openYear": 1966,
    "closeYear": 1972,
    "main": false
  },
  {
    "county": "Cork",
    "stationNumber": 1204,
    "name": "SHANAGARRY (KINOITH)",
    "heightInMeters": 24,
    "easting": 197700,
    "northing": 67300,
    "latitude": 51.855,
    "longitude": -8.033,
    "openYear": 1910,
    "closeYear": 1964,
    "main": false
  },
  {
    "county": "Cork",
    "stationNumber": 5004,
    "name": "SHANAGARRY NORTH",
    "heightInMeters": 27,
    "easting": 197600,
    "northing": 67500,
    "latitude": 51.856,
    "longitude": -8.034,
    "openYear": 1976,
    "closeYear": 0,
    "main": false
  },
  {
    "county": "Cork",
    "stationNumber": 8306,
    "name": "SHANBALLYMORE",
    "heightInMeters": 75,
    "easting": 167200,
    "northing": 107600,
    "latitude": 52.218,
    "longitude": -8.475,
    "openYear": 2002,
    "closeYear": 2010,
    "main": false
  },
  {
    "county": "Cork",
    "stationNumber": 3402,
    "name": "SHERKIN ISLAND",
    "heightInMeters": 20,
    "easting": 100820,
    "northing": 25760,
    "latitude": 51.472,
    "longitude": -9.424,
    "openYear": 1972,
    "closeYear": 0,
    "main": false
  },
  {
    "county": "Cork",
    "stationNumber": 3202,
    "name": "SKIBBEREEN (VOC.SCH.)",
    "heightInMeters": 24,
    "easting": 112400,
    "northing": 33900,
    "latitude": 51.551,
    "longitude": -9.258,
    "openYear": 1964,
    "closeYear": 1980,
    "main": false
  },
  {
    "county": "Cork",
    "stationNumber": 2002,
    "name": "SKIBBEREEN G.S.",
    "heightInMeters": 9,
    "easting": 112500,
    "northing": 33500,
    "latitude": 51.542,
    "longitude": -9.257,
    "openYear": 1949,
    "closeYear": 1964,
    "main": false
  },
  {
    "county": "Cork",
    "stationNumber": 4302,
    "name": "SKIBEREEN_(WaterTreatmentPlant)",
    "heightInMeters": 12,
    "easting": 111990,
    "northing": 36460,
    "latitude": 51.571,
    "longitude": -9.269,
    "openYear": 1988,
    "closeYear": 0,
    "main": false
  },
  {
    "county": "Cork",
    "stationNumber": 775,
    "name": "SherkinIsland",
    "heightInMeters": 21,
    "easting": 100781,
    "northing": 25801,
    "latitude": 51.472,
    "longitude": -9.423,
    "openYear": 2004,
    "closeYear": 0,
    "main": true
  },
  {
    "county": "Cork",
    "stationNumber": 1804,
    "name": "TARELTON G.S.",
    "heightInMeters": 155,
    "easting": 132300,
    "northing": 65800,
    "latitude": 51.837,
    "longitude": -8.976,
    "openYear": 1942,
    "closeYear": 1992,
    "main": false
  },
  {
    "county": "Cork",
    "stationNumber": 1902,
    "name": "TIMOLEAGUE G.S.",
    "heightInMeters": 12,
    "easting": 147000,
    "northing": 43500,
    "latitude": 51.638,
    "longitude": -8.759,
    "openYear": 1948,
    "closeYear": 1991,
    "main": false
  },
  {
    "county": "Cork",
    "stationNumber": 7404,
    "name": "UCC",
    "heightInMeters": 10,
    "easting": 166597,
    "northing": 71978,
    "latitude": 51.893,
    "longitude": -8.485,
    "openYear": 2015,
    "closeYear": 0,
    "main": false
  },
  {
    "county": "Cork",
    "stationNumber": 5604,
    "name": "UPTON",
    "heightInMeters": 64,
    "easting": 154100,
    "northing": 59500,
    "latitude": 51.785,
    "longitude": -8.66,
    "openYear": 1984,
    "closeYear": 1986,
    "main": false
  },
  {
    "county": "Cork",
    "stationNumber": 2404,
    "name": "WATERGRASSHILL",
    "heightInMeters": 184,
    "easting": 176400,
    "northing": 84400,
    "latitude": 52.007,
    "longitude": -8.34,
    "openYear": 1946,
    "closeYear": 1988,
    "main": false
  },
  {
    "county": "Cork",
    "stationNumber": 5804,
    "name": "WATERGRASSHILL_(Tinageragh)",
    "heightInMeters": 182,
    "easting": 176100,
    "northing": 84500,
    "latitude": 52.008,
    "longitude": -8.342,
    "openYear": 1988,
    "closeYear": 0,
    "main": false
  },
  {
    "county": "Cork",
    "stationNumber": 4206,
    "name": "YOUGHAL (SERVICE RESERVOIR)",
    "heightInMeters": 79,
    "easting": 209400,
    "northing": 78000,
    "latitude": 51.953,
    "longitude": -7.858,
    "openYear": 1944,
    "closeYear": 1962,
    "main": false
  },
  {
    "county": "Cork",
    "stationNumber": 3806,
    "name": "YOUGHAL (ST.RAPHAEL'S HOSP.)",
    "heightInMeters": 70,
    "easting": 210100,
    "northing": 77500,
    "latitude": 51.95,
    "longitude": -7.852,
    "openYear": 1963,
    "closeYear": 2012,
    "main": false
  },
  {
    "county": "Kerry",
    "stationNumber": 610,
    "name": "ABBEYDORNEY G.S.",
    "heightInMeters": 24,
    "easting": 85100,
    "northing": 122800,
    "latitude": 52.34,
    "longitude": -9.685,
    "openYear": 1941,
    "closeYear": 1971,
    "main": false
  },
  {
    "county": "Kerry",
    "stationNumber": 1609,
    "name": "ARDFERT (LISCAHANE)",
    "heightInMeters": 30,
    "easting": 79100,
    "northing": 119200,
    "latitude": 52.307,
    "longitude": -9.771,
    "openYear": 1980,
    "closeYear": 0,
    "main": false
  },
  {
    "county": "Kerry",
    "stationNumber": 2009,
    "name": "ARDFERT BALLYMACQUINN",
    "heightInMeters": 6,
    "easting": 76500,
    "northing": 126100,
    "latitude": 52.37,
    "longitude": -9.808,
    "openYear": 1985,
    "closeYear": 0,
    "main": false
  },
  {
    "county": "Kerry",
    "stationNumber": 709,
    "name": "ARDFERT G.S.",
    "heightInMeters": 23,
    "easting": 78700,
    "northing": 120400,
    "latitude": 52.32,
    "longitude": -9.774,
    "openYear": 1951,
    "closeYear": 1975,
    "main": false
  },
  {
    "county": "Kerry",
    "stationNumber": 903,
    "name": "BALLINSKELLIGS G.S.",
    "heightInMeters": 12,
    "easting": 43300,
    "northing": 65900,
    "latitude": 51.821,
    "longitude": -10.271,
    "openYear": 1949,
    "closeYear": 1972,
    "main": false
  },
  {
    "county": "Kerry",
    "stationNumber": 4105,
    "name": "BALLINSKELLIGS THE GLEN",
    "heightInMeters": 40,
    "easting": 39400,
    "northing": 69100,
    "latitude": 51.851,
    "longitude": -10.325,
    "openYear": 1985,
    "closeYear": 0,
    "main": false
  },
  {
    "county": "Kerry",
    "stationNumber": 6006,
    "name": "BALLYDESMOND",
    "heightInMeters": 201,
    "easting": 114900,
    "northing": 104000,
    "latitude": 52.175,
    "longitude": -9.24,
    "openYear": 1985,
    "closeYear": 0,
    "main": false
  },
  {
    "county": "Kerry",
    "stationNumber": 4306,
    "name": "BALLYDESMOND (TURREENGARRIVE)",
    "heightInMeters": 299,
    "easting": 112300,
    "northing": 103800,
    "latitude": 52.174,
    "longitude": -9.276,
    "openYear": 1966,
    "closeYear": 1968,
    "main": false
  },
  {
    "county": "Kerry",
    "stationNumber": 810,
    "name": "BALLYDUFF G.S.",
    "heightInMeters": 36,
    "easting": 87000,
    "northing": 134800,
    "latitude": 52.452,
    "longitude": -9.658,
    "openYear": 1941,
    "closeYear": 2000,
    "main": false
  },
  {
    "county": "Kerry",
    "stationNumber": 409,
    "name": "BALLYFERRITER G.S.",
    "heightInMeters": 37,
    "easting": 35400,
    "northing": 104200,
    "latitude": 52.159,
    "longitude": -10.403,
    "openYear": 1950,
    "closeYear": 1989,
    "main": false
  },
  {
    "county": "Kerry",
    "stationNumber": 809,
    "name": "BALLYHEIGUE G.S.",
    "heightInMeters": 11,
    "easting": 75000,
    "northing": 128000,
    "latitude": 52.387,
    "longitude": -9.835,
    "openYear": 1951,
    "closeYear": 1997,
    "main": false
  },
  {
    "county": "Kerry",
    "stationNumber": 1411,
    "name": "BALLYLONGFORD G.S.",
    "heightInMeters": 9,
    "easting": 99900,
    "northing": 144400,
    "latitude": 52.538,
    "longitude": -9.472,
    "openYear": 1941,
    "closeYear": 1995,
    "main": false
  },
  {
    "county": "Kerry",
    "stationNumber": 105,
    "name": "BALLYMACELLIGOT RECTORY",
    "heightInMeters": 39,
    "easting": 91900,
    "northing": 112100,
    "latitude": 52.25,
    "longitude": -9.583,
    "openYear": 1929,
    "closeYear": 1944,
    "main": false
  },
  {
    "county": "Kerry",
    "stationNumber": 3006,
    "name": "BARNA",
    "heightInMeters": 226,
    "easting": 113200,
    "northing": 102400,
    "latitude": 52.167,
    "longitude": -9.267,
    "openYear": 1950,
    "closeYear": 1985,
    "main": false
  },
  {
    "county": "Kerry",
    "stationNumber": 2505,
    "name": "BARRADUFF G.S.",
    "heightInMeters": 113,
    "easting": 108100,
    "northing": 90400,
    "latitude": 52.055,
    "longitude": -9.337,
    "openYear": 1951,
    "closeYear": 1988,
    "main": false
  },
  {
    "county": "Kerry",
    "stationNumber": 3605,
    "name": "BAWNASKEHY CASTLEISLAND",
    "heightInMeters": 52,
    "easting": 101700,
    "northing": 106400,
    "latitude": 52.201,
    "longitude": -9.436,
    "openYear": 1982,
    "closeYear": 0,
    "main": false
  },
  {
    "county": "Kerry",
    "stationNumber": 805,
    "name": "BEAUFORT G.S.",
    "heightInMeters": 35,
    "easting": 87800,
    "northing": 91800,
    "latitude": 52.067,
    "longitude": -9.635,
    "openYear": 1941,
    "closeYear": 1995,
    "main": false
  },
  {
    "county": "Kerry",
    "stationNumber": 2003,
    "name": "BLACKWATER FISHERY",
    "heightInMeters": 40,
    "easting": 79200,
    "northing": 69200,
    "latitude": 51.857,
    "longitude": -9.752,
    "openYear": 1999,
    "closeYear": 2000,
    "main": false
  },
  {
    "county": "Kerry",
    "stationNumber": 2209,
    "name": "BLENNERVILLE (CURRAGRAIGUE)",
    "heightInMeters": 27,
    "easting": 81600,
    "northing": 111500,
    "latitude": 52.239,
    "longitude": -9.726,
    "openYear": 1996,
    "closeYear": 2010,
    "main": false
  },
  {
    "county": "Kerry",
    "stationNumber": 1710,
    "name": "BROSNA",
    "heightInMeters": 134,
    "easting": 113300,
    "northing": 118600,
    "latitude": 52.308,
    "longitude": -9.269,
    "openYear": 1947,
    "closeYear": 1992,
    "main": false
  },
  {
    "county": "Kerry",
    "stationNumber": 1610,
    "name": "BROSNA (MT.EAGLE)",
    "heightInMeters": 238,
    "easting": 111200,
    "northing": 112500,
    "latitude": 52.254,
    "longitude": -9.3,
    "openYear": 1947,
    "closeYear": 2004,
    "main": false
  },
  {
    "county": "Kerry",
    "stationNumber": 3110,
    "name": "BROSNA (SCALP)",
    "heightInMeters": 229,
    "easting": 111400,
    "northing": 114800,
    "latitude": 52.273,
    "longitude": -9.292,
    "openYear": 2004,
    "closeYear": 2013,
    "main": false
  },
  {
    "county": "Kerry",
    "stationNumber": 1409,
    "name": "CAMP (DEELIS)",
    "heightInMeters": 6,
    "easting": 66800,
    "northing": 110200,
    "latitude": 52.223,
    "longitude": -9.95,
    "openYear": 1979,
    "closeYear": 1999,
    "main": false
  },
  {
    "county": "Kerry",
    "stationNumber": 2109,
    "name": "CAMP (GLANNAGALT)",
    "heightInMeters": 110,
    "easting": 67600,
    "northing": 107400,
    "latitude": 52.202,
    "longitude": -9.935,
    "openYear": 1993,
    "closeYear": 1997,
    "main": false
  },
  {
    "county": "Kerry",
    "stationNumber": 4805,
    "name": "CAMP (SLIABH)",
    "heightInMeters": 171,
    "easting": 67300,
    "northing": 106300,
    "latitude": 52.189,
    "longitude": -9.938,
    "openYear": 1997,
    "closeYear": 1998,
    "main": false
  },
  {
    "county": "Kerry",
    "stationNumber": 209,
    "name": "CAMP G.S.",
    "heightInMeters": 110,
    "easting": 69900,
    "northing": 109400,
    "latitude": 52.219,
    "longitude": -9.903,
    "openYear": 1941,
    "closeYear": 1982,
    "main": false
  },
  {
    "county": "Kerry",
    "stationNumber": 4205,
    "name": "CAPPANALEA GLENCAR",
    "heightInMeters": 107,
    "easting": 72800,
    "northing": 89800,
    "latitude": 52.041,
    "longitude": -9.853,
    "openYear": 1986,
    "closeYear": 1989,
    "main": false
  },
  {
    "county": "Kerry",
    "stationNumber": 1809,
    "name": "CASTLEGREGORY ROUGH POINT",
    "heightInMeters": 11,
    "easting": 62800,
    "northing": 119600,
    "latitude": 52.306,
    "longitude": -10.007,
    "openYear": 1984,
    "closeYear": 2004,
    "main": false
  },
  {
    "county": "Kerry",
    "stationNumber": 1205,
    "name": "CASTLEISLAND (COOM)",
    "heightInMeters": 157,
    "easting": 107400,
    "northing": 109900,
    "latitude": 52.233,
    "longitude": -9.353,
    "openYear": 1944,
    "closeYear": 0,
    "main": false
  },
  {
    "county": "Kerry",
    "stationNumber": 2005,
    "name": "CASTLEISLAND (GLOUNTAINE)",
    "heightInMeters": 241,
    "easting": 107800,
    "northing": 107300,
    "latitude": 52.206,
    "longitude": -9.342,
    "openYear": 1950,
    "closeYear": 2004,
    "main": false
  },
  {
    "county": "Kerry",
    "stationNumber": 4905,
    "name": "CASTLEISLAND (KILMURRY)",
    "heightInMeters": 107,
    "easting": 105900,
    "northing": 110300,
    "latitude": 52.235,
    "longitude": -9.373,
    "openYear": 1998,
    "closeYear": 0,
    "main": false
  },
  {
    "county": "Kerry",
    "stationNumber": 1305,
    "name": "CASTLEISLAND (VOC.SCH.)",
    "heightInMeters": 41,
    "easting": 100400,
    "northing": 110100,
    "latitude": 52.233,
    "longitude": -9.455,
    "openYear": 1944,
    "closeYear": 1988,
    "main": false
  },
  {
    "county": "Kerry",
    "stationNumber": 2805,
    "name": "CASTLEISLAND O.P.W.",
    "heightInMeters": 30,
    "easting": 100200,
    "northing": 109400,
    "latitude": 52.223,
    "longitude": -9.457,
    "openYear": 1959,
    "closeYear": 1962,
    "main": false
  },
  {
    "county": "Kerry",
    "stationNumber": 905,
    "name": "CASTLEMAINE G.S.",
    "heightInMeters": 8,
    "easting": 83900,
    "northing": 103300,
    "latitude": 52.168,
    "longitude": -9.692,
    "openYear": 1941,
    "closeYear": 1986,
    "main": false
  },
  {
    "county": "Kerry",
    "stationNumber": 509,
    "name": "CLOGHANE",
    "heightInMeters": 9,
    "easting": 51100,
    "northing": 110800,
    "latitude": 52.224,
    "longitude": -10.174,
    "openYear": 1950,
    "closeYear": 0,
    "main": false
  },
  {
    "county": "Kerry",
    "stationNumber": 1705,
    "name": "CLOONE LAKE (CARAGH RIVER AREA)",
    "heightInMeters": 122,
    "easting": 71200,
    "northing": 78400,
    "latitude": 51.939,
    "longitude": -9.871,
    "openYear": 1949,
    "closeYear": 0,
    "main": false
  },
  {
    "county": "Kerry",
    "stationNumber": 4505,
    "name": "DEREEN",
    "heightInMeters": 23,
    "easting": 45800,
    "northing": 74000,
    "latitude": 51.891,
    "longitude": -10.237,
    "openYear": 1995,
    "closeYear": 0,
    "main": false
  },
  {
    "county": "Kerry",
    "stationNumber": 1803,
    "name": "DERRIANA",
    "heightInMeters": 122,
    "easting": 60400,
    "northing": 73200,
    "latitude": 51.889,
    "longitude": -10.023,
    "openYear": 1993,
    "closeYear": 0,
    "main": false
  },
  {
    "county": "Kerry",
    "stationNumber": 103,
    "name": "DERRYNANE ABBEY",
    "heightInMeters": 4,
    "easting": 52900,
    "northing": 58700,
    "latitude": 51.757,
    "longitude": -10.125,
    "openYear": 1871,
    "closeYear": 1958,
    "main": false
  },
  {
    "county": "Kerry",
    "stationNumber": 1909,
    "name": "DINGLE (BAILE NA NGALL)",
    "heightInMeters": 36,
    "easting": 38600,
    "northing": 108400,
    "latitude": 52.202,
    "longitude": -10.357,
    "openYear": 1984,
    "closeYear": 0,
    "main": false
  },
  {
    "county": "Kerry",
    "stationNumber": 4305,
    "name": "DINGLE (MILLTOWN)",
    "heightInMeters": 9,
    "easting": 42900,
    "northing": 101500,
    "latitude": 52.139,
    "longitude": -10.29,
    "openYear": 1989,
    "closeYear": 1995,
    "main": false
  },
  {
    "county": "Kerry",
    "stationNumber": 2405,
    "name": "DINGLE G.S.",
    "heightInMeters": 6,
    "easting": 44600,
    "northing": 100800,
    "latitude": 52.136,
    "longitude": -10.268,
    "openYear": 1950,
    "closeYear": 1988,
    "main": false
  },
  {
    "county": "Kerry",
    "stationNumber": 4705,
    "name": "DOOKS",
    "heightInMeters": 15,
    "easting": 67900,
    "northing": 92400,
    "latitude": 52.067,
    "longitude": -9.923,
    "openYear": 1996,
    "closeYear": 0,
    "main": false
  },
  {
    "county": "Kerry",
    "stationNumber": 2205,
    "name": "FARRANFORE (CLOUNLEA)",
    "heightInMeters": 177,
    "easting": 104000,
    "northing": 99900,
    "latitude": 52.139,
    "longitude": -9.402,
    "openYear": 1950,
    "closeYear": 2005,
    "main": false
  },
  {
    "county": "Kerry",
    "stationNumber": 5005,
    "name": "FARRANFORE (KILFELIM)",
    "heightInMeters": 34,
    "easting": 96400,
    "northing": 106000,
    "latitude": 52.191,
    "longitude": -9.509,
    "openYear": 2001,
    "closeYear": 2001,
    "main": false
  },
  {
    "county": "Kerry",
    "stationNumber": 4405,
    "name": "FARRANFORE (KNOCKADERRY)",
    "heightInMeters": 34,
    "easting": 94000,
    "northing": 102900,
    "latitude": 52.167,
    "longitude": -9.55,
    "openYear": 1993,
    "closeYear": 2001,
    "main": false
  },
  {
    "county": "Kerry",
    "stationNumber": 2105,
    "name": "FARRANFORE (SCARTAGLIN)",
    "heightInMeters": 213,
    "easting": 104700,
    "northing": 105000,
    "latitude": 52.187,
    "longitude": -9.389,
    "openYear": 1950,
    "closeYear": 1971,
    "main": false
  },
  {
    "county": "Kerry",
    "stationNumber": 1005,
    "name": "FARRANFORE G.S.",
    "heightInMeters": 43,
    "easting": 94000,
    "northing": 103400,
    "latitude": 52.17,
    "longitude": -9.55,
    "openYear": 1941,
    "closeYear": 1991,
    "main": false
  },
  {
    "county": "Kerry",
    "stationNumber": 609,
    "name": "FENIT G.S.",
    "heightInMeters": 9,
    "easting": 72700,
    "northing": 115600,
    "latitude": 52.273,
    "longitude": -9.859,
    "openYear": 1951,
    "closeYear": 1995,
    "main": false
  },
  {
    "county": "Kerry",
    "stationNumber": 405,
    "name": "GAP OF DUNLOE",
    "heightInMeters": 34,
    "easting": 88500,
    "northing": 81900,
    "latitude": 51.973,
    "longitude": -9.62,
    "openYear": 1885,
    "closeYear": 0,
    "main": false
  },
  {
    "county": "Kerry",
    "stationNumber": 5105,
    "name": "GLENBEIGH",
    "heightInMeters": 72,
    "easting": 67000,
    "northing": 91300,
    "latitude": 52.055,
    "longitude": -9.937,
    "openYear": 2005,
    "closeYear": 2013,
    "main": false
  },
  {
    "county": "Kerry",
    "stationNumber": 1805,
    "name": "GLENBEIGH G.S.",
    "heightInMeters": 23,
    "easting": 67100,
    "northing": 91200,
    "latitude": 52.054,
    "longitude": -9.936,
    "openYear": 1949,
    "closeYear": 1988,
    "main": false
  },
  {
    "county": "Kerry",
    "stationNumber": 5305,
    "name": "GLENBEIGH-Dooks",
    "heightInMeters": 30,
    "easting": 69245,
    "northing": 93320,
    "latitude": 52.073,
    "longitude": -9.905,
    "openYear": 2013,
    "closeYear": 0,
    "main": false
  },
  {
    "county": "Kerry",
    "stationNumber": 3905,
    "name": "GLENCAR (DREENAGH)",
    "heightInMeters": 69,
    "easting": 69100,
    "northing": 85200,
    "latitude": 52.002,
    "longitude": -9.904,
    "openYear": 1983,
    "closeYear": 0,
    "main": false
  },
  {
    "county": "Kerry",
    "stationNumber": 1605,
    "name": "GLENVICKEE (CARAGH RIVER AREA)",
    "heightInMeters": 128,
    "easting": 74300,
    "northing": 81700,
    "latitude": 51.971,
    "longitude": -9.824,
    "openYear": 1949,
    "closeYear": 0,
    "main": false
  },
  {
    "county": "Kerry",
    "stationNumber": 1903,
    "name": "KENMARE",
    "heightInMeters": 14,
    "easting": 90700,
    "northing": 71200,
    "latitude": 51.876,
    "longitude": -9.586,
    "openYear": 1994,
    "closeYear": 0,
    "main": false
  },
  {
    "county": "Kerry",
    "stationNumber": 603,
    "name": "KENMARE (DERREEN)",
    "heightInMeters": 24,
    "easting": 77100,
    "northing": 58900,
    "latitude": 51.768,
    "longitude": -9.775,
    "openYear": 1878,
    "closeYear": 0,
    "main": false
  },
  {
    "county": "Kerry",
    "stationNumber": 1503,
    "name": "KENMARE (DOON)",
    "heightInMeters": 9,
    "easting": 78300,
    "northing": 67000,
    "latitude": 51.838,
    "longitude": -9.767,
    "openYear": 1953,
    "closeYear": 1993,
    "main": false
  },
  {
    "county": "Kerry",
    "stationNumber": 303,
    "name": "KENMARE (DROMORE CASTLE)",
    "heightInMeters": 27,
    "easting": 81500,
    "northing": 68400,
    "latitude": 51.853,
    "longitude": -9.718,
    "openYear": 1874,
    "closeYear": 1958,
    "main": false
  },
  {
    "county": "Kerry",
    "stationNumber": 203,
    "name": "KENMARE (SHEEN FALLS)",
    "heightInMeters": 15,
    "easting": 92500,
    "northing": 70000,
    "latitude": 51.87,
    "longitude": -9.557,
    "openYear": 1916,
    "closeYear": 1993,
    "main": false
  },
  {
    "county": "Kerry",
    "stationNumber": 503,
    "name": "KENMARE (VOC.SCH.)",
    "heightInMeters": 12,
    "easting": 91000,
    "northing": 70400,
    "latitude": 51.872,
    "longitude": -9.583,
    "openYear": 1955,
    "closeYear": 1955,
    "main": false
  },
  {
    "county": "Kerry",
    "stationNumber": 1003,
    "name": "KILGARVAN",
    "heightInMeters": 44,
    "easting": 100900,
    "northing": 73400,
    "latitude": 51.903,
    "longitude": -9.437,
    "openYear": 1949,
    "closeYear": 1969,
    "main": false
  },
  {
    "county": "Kerry",
    "stationNumber": 1603,
    "name": "KILGARVAN (GORTNABOUL)",
    "heightInMeters": 34,
    "easting": 100800,
    "northing": 73100,
    "latitude": 51.901,
    "longitude": -9.438,
    "openYear": 1969,
    "closeYear": 0,
    "main": false
  },
  {
    "county": "Kerry",
    "stationNumber": 605,
    "name": "KILLARNEY (B.V.M.PARK)",
    "heightInMeters": 34,
    "easting": 97000,
    "northing": 85700,
    "latitude": 52.008,
    "longitude": -9.5,
    "openYear": 1924,
    "closeYear": 1991,
    "main": false
  },
  {
    "county": "Kerry",
    "stationNumber": 2905,
    "name": "KILLARNEY (DROM AULINN)",
    "heightInMeters": 32,
    "easting": 97100,
    "northing": 90200,
    "latitude": 52.053,
    "longitude": -9.5,
    "openYear": 1966,
    "closeYear": 1972,
    "main": false
  },
  {
    "county": "Kerry",
    "stationNumber": 3505,
    "name": "KILLARNEY (FARM CENTRE)",
    "heightInMeters": 49,
    "easting": 96000,
    "northing": 92100,
    "latitude": 52.069,
    "longitude": -9.517,
    "openYear": 1976,
    "closeYear": 1992,
    "main": false
  },
  {
    "county": "Kerry",
    "stationNumber": 3005,
    "name": "KILLARNEY (GOLF CLUB)",
    "heightInMeters": 9,
    "easting": 92800,
    "northing": 91100,
    "latitude": 52.057,
    "longitude": -9.558,
    "openYear": 1967,
    "closeYear": 1972,
    "main": false
  },
  {
    "county": "Kerry",
    "stationNumber": 3105,
    "name": "KILLARNEY (GORTDROMAKIERY)",
    "heightInMeters": 181,
    "easting": 101200,
    "northing": 83800,
    "latitude": 51.992,
    "longitude": -9.437,
    "openYear": 1968,
    "closeYear": 1995,
    "main": false
  },
  {
    "county": "Kerry",
    "stationNumber": 2705,
    "name": "KILLARNEY (GT.SOUTHERN HOTEL)",
    "heightInMeters": 43,
    "easting": 97500,
    "northing": 90800,
    "latitude": 52.056,
    "longitude": -9.49,
    "openYear": 1958,
    "closeYear": 1968,
    "main": false
  },
  {
    "county": "Kerry",
    "stationNumber": 3405,
    "name": "KILLARNEY (LISSIVIGEEN N.S.)",
    "heightInMeters": 69,
    "easting": 100000,
    "northing": 89700,
    "latitude": 52.05,
    "longitude": -9.455,
    "openYear": 1969,
    "closeYear": 1984,
    "main": false
  },
  {
    "county": "Kerry",
    "stationNumber": 1105,
    "name": "KILLARNEY (MUCKROSS FOR.STN.)",
    "heightInMeters": 32,
    "easting": 97700,
    "northing": 88200,
    "latitude": 52.035,
    "longitude": -9.488,
    "openYear": 1941,
    "closeYear": 1976,
    "main": false
  },
  {
    "county": "Kerry",
    "stationNumber": 3205,
    "name": "KILLARNEY (MUCKROSS HSE.)",
    "heightInMeters": 58,
    "easting": 97200,
    "northing": 86200,
    "latitude": 52.017,
    "longitude": -9.492,
    "openYear": 1968,
    "closeYear": 0,
    "main": false
  },
  {
    "county": "Kerry",
    "stationNumber": 505,
    "name": "KILLARNEY (ST.FINAN'S HOSP.)",
    "heightInMeters": 55,
    "easting": 96400,
    "northing": 91600,
    "latitude": 52.067,
    "longitude": -9.507,
    "openYear": 1889,
    "closeYear": 1988,
    "main": false
  },
  {
    "county": "Kerry",
    "stationNumber": 205,
    "name": "KILLARNEY (THE REEKS)",
    "heightInMeters": 15,
    "easting": 83500,
    "northing": 93700,
    "latitude": 52.083,
    "longitude": -9.7,
    "openYear": 1956,
    "closeYear": 1957,
    "main": false
  },
  {
    "county": "Kerry",
    "stationNumber": 705,
    "name": "KILLORGLIN (CALLINAFERCY)",
    "heightInMeters": 14,
    "easting": 77900,
    "northing": 99400,
    "latitude": 52.133,
    "longitude": -9.783,
    "openYear": 1921,
    "closeYear": 0,
    "main": false
  },
  {
    "county": "Kerry",
    "stationNumber": 2605,
    "name": "KILLORGLIN (VOC.SCH.)",
    "heightInMeters": 28,
    "easting": 77500,
    "northing": 96200,
    "latitude": 52.103,
    "longitude": -9.786,
    "openYear": 1952,
    "closeYear": 1982,
    "main": false
  },
  {
    "county": "Kerry",
    "stationNumber": 3805,
    "name": "KILLORGLIN V.S. II",
    "heightInMeters": 34,
    "easting": 77900,
    "northing": 95700,
    "latitude": 52.1,
    "longitude": -9.776,
    "openYear": 1982,
    "closeYear": 1988,
    "main": false
  },
  {
    "county": "Kerry",
    "stationNumber": 5205,
    "name": "KNIGHTSTOWN",
    "heightInMeters": 72,
    "easting": 41800,
    "northing": 77300,
    "latitude": 51.922,
    "longitude": -10.3,
    "openYear": 2006,
    "closeYear": 0,
    "main": false
  },
  {
    "county": "Kerry",
    "stationNumber": 2910,
    "name": "KNOCKNAGOSHEL (LOWER DERK)",
    "heightInMeters": 195,
    "easting": 105400,
    "northing": 125000,
    "latitude": 52.368,
    "longitude": -9.386,
    "openYear": 1999,
    "closeYear": 1999,
    "main": false
  },
  {
    "county": "Kerry",
    "stationNumber": 2710,
    "name": "KNOCKNAGOSHEL (MEINLEITRIM)",
    "heightInMeters": 183,
    "easting": 106200,
    "northing": 116700,
    "latitude": 52.29,
    "longitude": -9.372,
    "openYear": 1992,
    "closeYear": 0,
    "main": false
  },
  {
    "county": "Kerry",
    "stationNumber": 910,
    "name": "KNOCKNAGOSHEL G.S.",
    "heightInMeters": 152,
    "easting": 106200,
    "northing": 121100,
    "latitude": 52.333,
    "longitude": -9.372,
    "openYear": 1941,
    "closeYear": 1995,
    "main": false
  },
  {
    "county": "Kerry",
    "stationNumber": 1403,
    "name": "LAURAGH G.S.",
    "heightInMeters": 8,
    "easting": 77300,
    "northing": 58300,
    "latitude": 51.758,
    "longitude": -9.773,
    "openYear": 1952,
    "closeYear": 1985,
    "main": false
  },
  {
    "county": "Kerry",
    "stationNumber": 2310,
    "name": "LISTOWEL (GROGEEN)",
    "heightInMeters": 67,
    "easting": 101000,
    "northing": 132800,
    "latitude": 52.436,
    "longitude": -9.453,
    "openYear": 1979,
    "closeYear": 2004,
    "main": false
  },
  {
    "county": "Kerry",
    "stationNumber": 2010,
    "name": "LISTOWEL (INCH)",
    "heightInMeters": 15,
    "easting": 95600,
    "northing": 136400,
    "latitude": 52.468,
    "longitude": -9.535,
    "openYear": 1955,
    "closeYear": 2015,
    "main": false
  },
  {
    "county": "Kerry",
    "stationNumber": 1810,
    "name": "LISTOWEL (RATHEA)",
    "heightInMeters": 91,
    "easting": 98700,
    "northing": 128300,
    "latitude": 52.392,
    "longitude": -9.487,
    "openYear": 1948,
    "closeYear": 1982,
    "main": false
  },
  {
    "county": "Kerry",
    "stationNumber": 2210,
    "name": "LISTOWEL (ST.MICHAEL'S COLL.)",
    "heightInMeters": 30,
    "easting": 98900,
    "northing": 134400,
    "latitude": 52.451,
    "longitude": -9.486,
    "openYear": 1974,
    "closeYear": 1979,
    "main": false
  },
  {
    "county": "Kerry",
    "stationNumber": 1010,
    "name": "LISTOWEL (TRANS.STN.)",
    "heightInMeters": 61,
    "easting": 101600,
    "northing": 132900,
    "latitude": 52.437,
    "longitude": -9.442,
    "openYear": 1941,
    "closeYear": 1972,
    "main": false
  },
  {
    "county": "Kerry",
    "stationNumber": 1110,
    "name": "LISTOWEL G.S.",
    "heightInMeters": 47,
    "easting": 99000,
    "northing": 133900,
    "latitude": 52.442,
    "longitude": -9.485,
    "openYear": 1941,
    "closeYear": 1983,
    "main": false
  },
  {
    "county": "Kerry",
    "stationNumber": 3410,
    "name": "LISTOWEL-Bunaghara",
    "heightInMeters": 34,
    "easting": 103305,
    "northing": 133215,
    "latitude": 52.439,
    "longitude": -9.42,
    "openYear": 2013,
    "closeYear": 0,
    "main": false
  },
  {
    "county": "Kerry",
    "stationNumber": 3010,
    "name": "LISTOWEL_(Gurtocloghane)",
    "heightInMeters": 125,
    "easting": 99900,
    "northing": 125900,
    "latitude": 52.372,
    "longitude": -9.468,
    "openYear": 2000,
    "closeYear": 0,
    "main": false
  },
  {
    "county": "Kerry",
    "stationNumber": 1910,
    "name": "LIXNAW G.S.",
    "heightInMeters": 8,
    "easting": 90100,
    "northing": 129100,
    "latitude": 52.402,
    "longitude": -9.609,
    "openYear": 1951,
    "closeYear": 1985,
    "main": false
  },
  {
    "county": "Kerry",
    "stationNumber": 2510,
    "name": "LIXNAW GARRYNAGORE",
    "heightInMeters": 15,
    "easting": 88400,
    "northing": 125200,
    "latitude": 52.367,
    "longitude": -9.636,
    "openYear": 1985,
    "closeYear": 1999,
    "main": false
  },
  {
    "county": "Kerry",
    "stationNumber": 1505,
    "name": "LYRANES (CARAGH RIVER AREA)",
    "heightInMeters": 85,
    "easting": 72500,
    "northing": 84100,
    "latitude": 51.99,
    "longitude": -9.854,
    "openYear": 1949,
    "closeYear": 1969,
    "main": false
  },
  {
    "county": "Kerry",
    "stationNumber": 3305,
    "name": "LYRANES-UPPER(CARAGH RVR.AREA)",
    "heightInMeters": 91,
    "easting": 72500,
    "northing": 84900,
    "latitude": 52.001,
    "longitude": -9.854,
    "openYear": 1969,
    "closeYear": 1990,
    "main": false
  },
  {
    "county": "Kerry",
    "stationNumber": 510,
    "name": "LYREACRUMPANE",
    "heightInMeters": 128,
    "easting": 98600,
    "northing": 123700,
    "latitude": 52.353,
    "longitude": -9.487,
    "openYear": 1939,
    "closeYear": 1964,
    "main": false
  },
  {
    "county": "Kerry",
    "stationNumber": 2110,
    "name": "LYREACRUMPANE (CARRIGCANNON)",
    "heightInMeters": 183,
    "easting": 97600,
    "northing": 120600,
    "latitude": 52.323,
    "longitude": -9.502,
    "openYear": 1964,
    "closeYear": 1985,
    "main": false
  },
  {
    "county": "Kerry",
    "stationNumber": 1510,
    "name": "LYREACRUMPANE (REENAGOWN)",
    "heightInMeters": 187,
    "easting": 97300,
    "northing": 118200,
    "latitude": 52.303,
    "longitude": -9.503,
    "openYear": 1947,
    "closeYear": 2011,
    "main": false
  },
  {
    "county": "Kerry",
    "stationNumber": 9005,
    "name": "M.BALLAGHBEAMA GAP",
    "heightInMeters": 311,
    "easting": 75500,
    "northing": 78300,
    "latitude": 51.939,
    "longitude": -9.807,
    "openYear": 1949,
    "closeYear": 0,
    "main": false
  },
  {
    "county": "Kerry",
    "stationNumber": 9105,
    "name": "M.BALLAGHISHEEN GAP",
    "heightInMeters": 329,
    "easting": 67100,
    "northing": 79000,
    "latitude": 51.942,
    "longitude": -9.933,
    "openYear": 1949,
    "closeYear": 1990,
    "main": false
  },
  {
    "county": "Kerry",
    "stationNumber": 8905,
    "name": "M.BEENREAGH MTN.",
    "heightInMeters": 491,
    "easting": 66100,
    "northing": 85400,
    "latitude": 52.003,
    "longitude": -9.95,
    "openYear": 1949,
    "closeYear": 0,
    "main": false
  },
  {
    "county": "Kerry",
    "stationNumber": 9103,
    "name": "M.CUMMERAGH NO.1",
    "heightInMeters": 305,
    "easting": 61000,
    "northing": 71700,
    "latitude": 51.875,
    "longitude": -10.018,
    "openYear": 1942,
    "closeYear": 0,
    "main": false
  },
  {
    "county": "Kerry",
    "stationNumber": 9203,
    "name": "M.CUMMERAGH NO.2",
    "heightInMeters": 404,
    "easting": 63400,
    "northing": 71200,
    "latitude": 51.872,
    "longitude": -9.983,
    "openYear": 1942,
    "closeYear": 0,
    "main": false
  },
  {
    "county": "Kerry",
    "stationNumber": 9303,
    "name": "M.CUMMERAGH NO.3",
    "heightInMeters": 543,
    "easting": 64100,
    "northing": 70400,
    "latitude": 51.868,
    "longitude": -9.971,
    "openYear": 1942,
    "closeYear": 0,
    "main": false
  },
  {
    "county": "Kerry",
    "stationNumber": 9403,
    "name": "M.CUMMERAGH NO.4",
    "heightInMeters": 494,
    "easting": 62000,
    "northing": 69400,
    "latitude": 51.856,
    "longitude": -10.002,
    "openYear": 1942,
    "closeYear": 0,
    "main": false
  },
  {
    "county": "Kerry",
    "stationNumber": 9503,
    "name": "M.CUMMERAGH NO.5",
    "heightInMeters": 396,
    "easting": 58200,
    "northing": 68700,
    "latitude": 51.852,
    "longitude": -10.055,
    "openYear": 1942,
    "closeYear": 0,
    "main": false
  },
  {
    "county": "Kerry",
    "stationNumber": 9603,
    "name": "M.CUMMERAGH NO.6",
    "heightInMeters": 351,
    "easting": 63400,
    "northing": 75100,
    "latitude": 51.907,
    "longitude": -9.984,
    "openYear": 1942,
    "closeYear": 1989,
    "main": false
  },
  {
    "county": "Kerry",
    "stationNumber": 9703,
    "name": "M.CUMMERAGH NO.7",
    "heightInMeters": 649,
    "easting": 66500,
    "northing": 74500,
    "latitude": 51.904,
    "longitude": -9.937,
    "openYear": 1942,
    "closeYear": 1983,
    "main": false
  },
  {
    "county": "Kerry",
    "stationNumber": 9903,
    "name": "M.CUMMERAGH NO.7A",
    "heightInMeters": 183,
    "easting": 62700,
    "northing": 74000,
    "latitude": 51.901,
    "longitude": -9.991,
    "openYear": 1977,
    "closeYear": 1989,
    "main": false
  },
  {
    "county": "Kerry",
    "stationNumber": 9803,
    "name": "M.CUMMERAGH NO.8",
    "heightInMeters": 52,
    "easting": 54700,
    "northing": 69100,
    "latitude": 51.853,
    "longitude": -10.106,
    "openYear": 1942,
    "closeYear": 1989,
    "main": false
  },
  {
    "county": "Kerry",
    "stationNumber": 8705,
    "name": "M.KILLARNEY (DROMDIRALOUGH)",
    "heightInMeters": 108,
    "easting": 102000,
    "northing": 85800,
    "latitude": 52.009,
    "longitude": -9.423,
    "openYear": 1968,
    "closeYear": 1992,
    "main": false
  },
  {
    "county": "Kerry",
    "stationNumber": 9205,
    "name": "M.OOLAGH MTN.",
    "heightInMeters": 235,
    "easting": 73700,
    "northing": 90000,
    "latitude": 52.042,
    "longitude": -9.838,
    "openYear": 1949,
    "closeYear": 2010,
    "main": false
  },
  {
    "county": "Kerry",
    "stationNumber": 9305,
    "name": "M.TORC MANGERTON NO.1",
    "heightInMeters": 223,
    "easting": 95900,
    "northing": 83100,
    "latitude": 51.987,
    "longitude": -9.509,
    "openYear": 1942,
    "closeYear": 1991,
    "main": false
  },
  {
    "county": "Kerry",
    "stationNumber": 9405,
    "name": "M.TORC MANGERTON NO.2",
    "heightInMeters": 411,
    "easting": 95500,
    "northing": 83600,
    "latitude": 51.99,
    "longitude": -9.52,
    "openYear": 1942,
    "closeYear": 1978,
    "main": false
  },
  {
    "county": "Kerry",
    "stationNumber": 8605,
    "name": "M.TORC MANGERTON NO.2A",
    "heightInMeters": 427,
    "easting": 95300,
    "northing": 83400,
    "latitude": 51.989,
    "longitude": -9.522,
    "openYear": 1966,
    "closeYear": 1991,
    "main": false
  },
  {
    "county": "Kerry",
    "stationNumber": 9905,
    "name": "M.TORC MANGERTON NO.3",
    "heightInMeters": 808,
    "easting": 97500,
    "northing": 81200,
    "latitude": 51.971,
    "longitude": -9.488,
    "openYear": 1942,
    "closeYear": 1991,
    "main": false
  },
  {
    "county": "Kerry",
    "stationNumber": 9505,
    "name": "M.TORC MANGERTON NO.4",
    "heightInMeters": 701,
    "easting": 97900,
    "northing": 81700,
    "latitude": 51.973,
    "longitude": -9.485,
    "openYear": 1942,
    "closeYear": 1991,
    "main": false
  },
  {
    "county": "Kerry",
    "stationNumber": 9605,
    "name": "M.TORC MANGERTON NO.4A",
    "heightInMeters": 518,
    "easting": 98400,
    "northing": 82900,
    "latitude": 51.987,
    "longitude": -9.474,
    "openYear": 1942,
    "closeYear": 1991,
    "main": false
  },
  {
    "county": "Kerry",
    "stationNumber": 9705,
    "name": "M.TORC MANGERTON NO.5",
    "heightInMeters": 283,
    "easting": 99600,
    "northing": 82600,
    "latitude": 51.985,
    "longitude": -9.457,
    "openYear": 1942,
    "closeYear": 1992,
    "main": false
  },
  {
    "county": "Kerry",
    "stationNumber": 9805,
    "name": "M.TORC MANGERTON NO.6",
    "heightInMeters": 442,
    "easting": 95600,
    "northing": 80500,
    "latitude": 51.967,
    "longitude": -9.518,
    "openYear": 1942,
    "closeYear": 1991,
    "main": false
  },
  {
    "county": "Kerry",
    "stationNumber": 8805,
    "name": "M.TORC MANGERTON NO.7",
    "heightInMeters": 436,
    "easting": 97000,
    "northing": 83400,
    "latitude": 51.989,
    "longitude": -9.5,
    "openYear": 1966,
    "closeYear": 1991,
    "main": false
  },